name,address,location,arrondissement,department_num,department,capital,region,price,cuisine,url,award,stars,greenstar,longitude,latitude
L'Ambroisie,9 place des Vosges,"Paris, 75004",4th (Hôtel-de-Ville),75,Paris,Paris,Île-de-France,€€€€,Classic Cuisine,https://www.ambroisie-paris.com/,3 Stars,3.0,0,2.3645215,48.855494
Flocons de Sel,"1775 route du Leutaz, Le Leutaz","Megève, 74120",Bonneville,74,Haute-Savoie,Annecy,Auvergne-Rhône-Alpes,€€€€,Modern Cuisine,https://www.floconsdesel.com,3 Stars,3.0,0,6.5969625,45.8302404
Épicure,"Le Bristol, 112 rue du Faubourg-Saint-Honoré","Paris, 75008",8th (Élysée),75,Paris,Paris,Île-de-France,€€€€,Modern Cuisine,https://www.oetkercollection.com/fr/hotels/le-bristol-paris/restaurants-et-bar/epicure/,3 Stars,3.0,0,2.3145978,48.8717223
Arpège,84 rue de Varenne,"Paris, 75007",7th (Palais-Bourbon),75,Paris,Paris,Île-de-France,€€€€,Creative,https://www.alain-passard.com/,3 Stars,3.0,1,2.3170127,48.8557538
Le Pré Catelan,Route de Suresnes - bois de Boulogne,"Paris, 75016",16th (Passy),75,Paris,Paris,Île-de-France,€€€€,"Creative, Contemporary",https://www.leprecatelan.com/,3 Stars,3.0,0,2.2507182,48.8639374
Le Cinq,"Four Seasons Hotel George V, 31 avenue George-V","Paris, 75008",8th (Élysée),75,Paris,Paris,Île-de-France,€€€€,Modern Cuisine,https://www.fourseasons.com,3 Stars,3.0,0,2.3008612,48.8687604
Le Petit Nice,Anse de Maldormé,"Marseille, 13007",Marseille,13,Bouches-du-Rhône,Marseille,Provence-Alpes-Côte d'Azur,€€€€,Seafood,https://www.passedat.fr,3 Stars,3.0,0,5.3520484,43.2802565
Kei,5 rue du Coq-Héron,"Paris, 75001",1st (Louvre),75,Paris,Paris,Île-de-France,€€€€,"Modern Cuisine, Creative",https://www.restaurant-kei.fr/,3 Stars,3.0,0,2.3422847,48.8643947
L'Oustau de Baumanière,Mas de Baumanière,"Les Baux-de-Provence, 13520",Arles,13,Bouches-du-Rhône,Marseille,Provence-Alpes-Côte d'Azur,€€€€,Creative,http://www.baumaniere.com,3 Stars,3.0,1,4.7873628,43.7402659
Plénitude - Cheval Blanc Paris,8 quai du Louvre,"Paris, 75001",1st (Louvre),75,Paris,Paris,Île-de-France,€€€€,Creative,https://www.chevalblanc.com/fr/maison/paris/,3 Stars,3.0,0,2.3421588,48.8588148
AM par Alexandre Mazzia,9 rue François-Rocca,"Marseille, 13008",Marseille,13,Bouches-du-Rhône,Marseille,Provence-Alpes-Côte d'Azur,€€€€,Creative,https://www.alexandre-mazzia.com/,3 Stars,3.0,0,5.3862325,43.2701104
Pic,285 avenue Victor-Hugo,"Valence, 26000",Valence,26,Drôme,Valence,Auvergne-Rhône-Alpes,€€€€,Creative,http://www.anne-sophie-pic.com,3 Stars,3.0,0,4.8855601,44.9176875
Maison Lameloise,36 place d'Armes,"Chagny, 71150",Chalon-sur-Saône,71,Saône-et-Loire,Mâcon,Bourgogne-Franche-Comté,€€€€,Modern Cuisine,https://www.lameloise.fr/,3 Stars,3.0,0,4.7529917,46.9078385
Le Coquillage,Lieu-dit Le Buot,"Saint-Méloir-des-Ondes, 35350",Saint-Malo,35,Ille-et-Vilaine,Rennes,Bretagne,€€€€,"Creative, Seafood",https://www.maisons-de-bricourt.com/fr/page/le-coquillage,3 Stars,3.0,1,-1.8711232,48.6430654
Restaurant Marcon,"Larsiallas, 18 chemin de Brard","Saint-Bonnet-le-Froid, 43290",Yssingeaux,43,Haute-Loire,Le Puy-en-Velay,Auvergne-Rhône-Alpes,€€€€,Creative,https://www.lesmaisonsmarcon.fr/,3 Stars,3.0,1,4.4342679,45.1386734
Pierre Gagnaire,6 rue Balzac,"Paris, 75008",8th (Élysée),75,Paris,Paris,Île-de-France,€€€€,Creative,http://pierregagnaire-lerestaurant.com,3 Stars,3.0,0,2.3003862,48.8732506
La Vague d'Or - Cheval Blanc St-Tropez,Plage de la Bouillabaisse,"Saint-Tropez, 83990",Draguignan,83,Var,Toulon,Provence-Alpes-Côte d'Azur,€€€€,Creative,https://www.chevalblanc.com/fr/maison/st-tropez/,3 Stars,3.0,0,6.6261535,43.2665849
Christopher Coutanceau,Plage de la Concurrence,"La Rochelle, 17000",La Rochelle,17,Charente-Maritime,La Rochelle,Nouvelle-Aquitaine,€€€€,"Seafood, Modern Cuisine",http://www.christophercoutanceau.com/fr/,3 Stars,3.0,1,-1.1599181,46.1553629
Troisgros - Le Bois sans Feuilles,728 route de Villerest,"Ouches, 42155",Roanne,42,Loire,Saint-Étienne,Auvergne-Rhône-Alpes,€€€€,Creative,https://www.troisgros.fr/,3 Stars,3.0,1,3.99236,46.01033
BRU,28 rue Jean-Baptiste-Pigalle,"Paris, 75009",9th (Opéra),75,Paris,Paris,Île-de-France,€€,"Modern Cuisine, Creole",http://www.bruparis.com,Bib Gourmand,0.5,0,2.3338156,48.87941
Matka,78 rue Quincampoix,"Paris, 75003",3rd (Temple),75,Paris,Paris,Île-de-France,€€,Polish,https://www.matkarestaurant.fr/,Selected Restaurants,0.25,0,2.3510841,48.8620352
Maison Brut,18 rue d'Abbeville,"Paris, 75009",9th (Opéra),75,Paris,Paris,Île-de-France,€€€,Modern Cuisine,http://www.maisonbrutparis.fr,Selected Restaurants,0.25,0,2.3492727,48.8792968
Première édition,5 rue Prévôt,"Avignon, 84000",Avignon,84,Vaucluse,Avignon,Provence-Alpes-Côte d'Azur,€€,Modern Cuisine,https://premiereedition.fr,Selected Restaurants,0.25,0,4.8063679,43.9465983
La Marine,3 rue Marie-Lemonnier,"L'Herbaudière, 85330",Les Sables-d'Olonne,85,Vendée,La Roche-sur-Yon,Pays de la Loire,€€€€,"Creative, Seafood",https://www.alexandrecouillon.com/fr/,3 Stars,3.0,1,-2.2999341,47.0237104
Le Clos des Sens,13 rue Jean-Mermoz - à Annecy-le-Vieux,"Annecy, 74940",Annecy,74,Haute-Savoie,Annecy,Auvergne-Rhône-Alpes,€€€€,Creative,https://www.closdessens.com/,3 Stars,3.0,1,6.1445765,45.9176317
La Villa Madie,Avenue de Revestel,"Cassis, 13260",Marseille,13,Bouches-du-Rhône,Marseille,Provence-Alpes-Côte d'Azur,€€€€,Creative,http://www.lavillamadie.com,3 Stars,3.0,0,5.544944,43.2110889
Assiette Champenoise,"40 avenue Paul-Vaillant-Couturier, à Tinqueux","Reims, 51430",Reims,51,Marne,Châlons-en-Champagne,Grand Est,€€€€,Creative,https://www.assiettechampenoise.com/,3 Stars,3.0,0,4.0032666,49.2478347
Mirazur,30 avenue Aristide-Briand,"Menton, 06500",Nice,06,Alpes-Maritimes,Nice,Provence-Alpes-Côte d'Azur,€€€€,Creative,https://www.mirazur.fr/,3 Stars,3.0,1,7.5280514,43.7859304
Les Prés d'Eugénie - Michel Guérard,Place de l'Impératrice,"Eugénie-les-Bains, 40320",Mont-de-Marsan,40,Landes,Mont-de-Marsan,Nouvelle-Aquitaine,€€€€,Classic Cuisine,https://lespresdeugenie.com/,3 Stars,3.0,0,-0.3797229,43.696604
Auberge du Vieux Puits,5 avenue Saint-Victor,"Fontjoncouse, 11360",Narbonne,11,Aude,Carcassonne,Occitanie,€€€€,Creative,https://www.aubergeduvieuxpuits.fr/fr/,3 Stars,3.0,0,2.7893292,43.0481728
Alléno Paris au Pavillon Ledoyen,8 avenue Dutuit,"Paris, 75008",8th (Élysée),75,Paris,Paris,Île-de-France,€€€€,Creative,https://www.yannick-alleno.com,3 Stars,3.0,0,2.3164993,48.8660932
Le 1947 à Cheval Blanc,"Cheval Blanc, Le Jardin Alpin, Courchevel 1850","Courchevel, 73120",Albertville,73,Savoie,Chambéry,Auvergne-Rhône-Alpes,€€€€,Creative,https://www.chevalblanc.com/fr/maison/courchevel/,3 Stars,3.0,0,6.6338696,45.4094877
Le Gabriel - La Réserve Paris,"La Réserve Paris, 42 avenue Gabriel","Paris, 75008",8th (Élysée),75,Paris,Paris,Île-de-France,€€€€,Creative,https://www.lareserve-paris.com/,3 Stars,3.0,0,2.3132078,48.8697309
La Table du Castellet,"3001 route des Hauts-du-Camp, au Circuit Paul Ricard","Le Castellet, 83330",Toulon,83,Var,Toulon,Provence-Alpes-Côte d'Azur,€€€€,Creative,http://www.hotelducastellet.net/fr/restaurants/restaurant-gastronomique,3 Stars,3.0,0,5.7838874,43.2499288
Rozó,34 rue Raymond-Derain,"Marcq-en-Barœul, 59700",Lille,59,Nord,Lille,Hauts-de-France,€€€€,"Creative, Modern Cuisine",http://www.restaurant-rozo.fr,2 Stars,2.0,0,3.0909516,50.6752
Villa René Lalique,18 rue Bellevue,"Wingen-sur-Moder, 67290",Saverne,67,Bas-Rhin,Strasbourg,Grand Est,€€€€,"Creative, Modern Cuisine",http://www.villarenelalique.com,2 Stars,2.0,0,7.365027,48.9185
Le Jules Verne,Tour Eiffel - 6 avenue Gustave-Eiffel,"Paris, 75007",7th (Palais-Bourbon),75,Paris,Paris,Île-de-France,€€€€,Modern Cuisine,https://www.restaurants-toureiffel.com/fr/restaurant-jules-verne.html,2 Stars,2.0,0,2.29462,48.85756
Marsan par Hélène Darroze,4 rue d'Assas,"Paris, 75006",6th (Luxembourg),75,Paris,Paris,Île-de-France,€€€€,Modern Cuisine,https://www.marsanhelenedarroze.com/,2 Stars,2.0,0,2.3279216,48.8499883
David Toutain,29 rue Surcouf,"Paris, 75007",7th (Palais-Bourbon),75,Paris,Paris,Île-de-France,€€€€,Creative,https://www.davidtoutain.com/,2 Stars,2.0,1,2.3097038,48.8602663
Le Taillevent,15 rue Lamennais,"Paris, 75008",8th (Élysée),75,Paris,Paris,Île-de-France,€€€€,Classic Cuisine,http://www.letaillevent.com/,2 Stars,2.0,0,2.3024829,48.874195
Palais Royal Restaurant,110 Galerie de Valois,"Paris, 75001",1st (Louvre),75,Paris,Paris,Île-de-France,€€€€,"Creative, Modern Cuisine",https://palaisroyalrestaurantparis.com/,2 Stars,2.0,0,2.3390887,48.8657851
Maison Aribert,280 allée du Jeune-Bayard,"Uriage-les-Bains, 38410",Grenoble,38,Isère,Grenoble,Auvergne-Rhône-Alpes,€€€€,"Creative, Modern Cuisine",http://www.maisonaribert.com,2 Stars,2.0,1,5.8315479,45.1417394
Table - Bruno Verjus,3 rue de Prague,"Paris, 75012",12th (Reuilly),75,Paris,Paris,Île-de-France,€€€€,Modern Cuisine,http://www.table.paris,2 Stars,2.0,1,2.3759654,48.8486151
L'Orangerie,"Four Seasons George V, 31 avenue George-V","Paris, 75008",8th (Élysée),75,Paris,Paris,Île-de-France,€€€€,Modern Cuisine,https://www.fourseasons.com/fr/paris/dining/restaurants/l-orangerie/,2 Stars,2.0,0,2.3008263,48.8687851
Le Grand Restaurant - Jean-François Piège,7 rue d'Aguesseau,"Paris, 75008",8th (Élysée),75,Paris,Paris,Île-de-France,€€€€,Creative,https://xn--jeanfranoispiege-jpb.com/le-grand-restaurant,2 Stars,2.0,0,2.3193146,48.8701983
Guy Savoy,11 quai de Conti,"Paris, 75006",6th (Luxembourg),75,Paris,Paris,Île-de-France,€€€€,Modern Cuisine,https://www.guysavoy.com/,2 Stars,2.0,0,2.3391955,48.8566248
Restaurant Le Meurice Alain Ducasse,"Le Meurice, 228 rue de Rivoli","Paris, 75001",1st (Louvre),75,Paris,Paris,Île-de-France,€€€€,Creative,https://www.alainducasse-meurice.com,2 Stars,2.0,0,2.3278399,48.86525
Relais de la Poste,24 avenue de Maremne,"Magescq, 40140",Dax,40,Landes,Mont-de-Marsan,Nouvelle-Aquitaine,€€€€,Classic Cuisine,https://www.relaisposte.com,2 Stars,2.0,0,-1.2179647,43.7787343
Paul Bocuse,40 quai de la Plage,"Collonges-au-Mont-d'Or, 69660",Lyon,69,Rhône,Lyon,Auvergne-Rhône-Alpes,€€€€,Classic Cuisine,http://www.bocuse.fr,2 Stars,2.0,0,4.8475623,45.8156437
Takao Takano,33 rue Malesherbes,"Lyon, 69006",Lyon,69,Rhône,Lyon,Auvergne-Rhône-Alpes,€€€€,Creative,https://www.takaotakano.com/,2 Stars,2.0,0,4.8426431,45.7704565
Mère Brazier,12 rue Royale,"Lyon, 69001",Lyon,69,Rhône,Lyon,Auvergne-Rhône-Alpes,€€€€,Classic Cuisine,http://www.lamerebrazier.fr,2 Stars,2.0,0,4.8372034,45.7714309
Le Pré - Xavier Beaudiment,Route de la Baraque,"Clermont-Ferrand, 63000",Clermont-Ferrand,63,Puy-de-Dôme,Clermont-Ferrand,Auvergne-Rhône-Alpes,€€€€,Creative,https://www.restaurant-lepre.com/,2 Stars,2.0,0,3.0519431,45.7886787
JY'S,3 allée du Champ-de-Mars,"Colmar, 68000",Colmar-Ribeauvillé,68,Haut-Rhin,Colmar,Grand Est,€€€€,Creative,https://www.jean-yves-schillinger.com/,2 Stars,2.0,0,7.3533263,48.0755636
Serge Vieira,Le Couffour,"Chaudes-Aigues, 15110",Saint-Flour,15,Cantal,Aurillac,Auvergne-Rhône-Alpes,€€€€,Creative,https://www.sergevieira.com/,2 Stars,2.0,1,3.0019613,44.8442761
Sushi Yoshinaga,27 rue du 4-Septembre,"Paris, 75002",2nd (Bourse),75,Paris,Paris,Île-de-France,€€€€,Japanese,http://www.sushiyoshinaga.com,2 Stars,2.0,0,2.3349558,48.8698375
Le Neuvième Art,173 rue Cuvier,"Lyon, 69006",Lyon,69,Rhône,Lyon,Auvergne-Rhône-Alpes,€€€€,"Creative, Modern Cuisine",http://www.leneuviemeart.com,2 Stars,2.0,0,4.8564194,45.767953
Le Sarkara,"Le K2 Palace, 238 rue des Clarines, Courchevel 1850","Courchevel, 73120",Albertville,73,Savoie,Chambéry,Auvergne-Rhône-Alpes,€€€€,Creative,https://www.lek2palace.com/fr/deguster/le-sarkara.html,2 Stars,2.0,0,6.638871,45.4122032
Bras,Route de l'Aubrac,"Laguiole, 12210",Rodez,12,Aveyron,Rodez,Occitanie,€€€€,Creative,http://www.bras.fr/fr/,2 Stars,2.0,0,2.8938527,44.6807175
Le Skiff Club,"Hôtel Ha(a)ïtza, 1 avenue Louis-Gaume","Pyla-sur-Mer, 33115",Arcachon,33,Gironde,Bordeaux,Nouvelle-Aquitaine,€€€€,Modern Cuisine,https://www.haaitza.com,2 Stars,2.0,1,-1.20669,44.606014
La Table des Amis,"Les Mas Les Eydins, 2420 chemin du Four","Bonnieux, 84480",Apt,84,Vaucluse,Avignon,Provence-Alpes-Côte d'Azur,€€€€,Modern Cuisine,http://www.leseydins.com,2 Stars,2.0,0,5.3018513,43.8511871
Maison Benoît Vidal,"Sur-les-Bois, 79 route de Thônes","Annecy, 74940",Annecy,74,Haute-Savoie,Annecy,Auvergne-Rhône-Alpes,€€€€,Creative,https://www.maison-benoit-vidal.com,2 Stars,2.0,0,6.171891,45.9226978
Jean Sulpice,303 route du Port,"Talloires-Montmin, 74290",Annecy,74,Haute-Savoie,Annecy,Auvergne-Rhône-Alpes,€€€€,Creative,http://www.perebise.com,2 Stars,2.0,1,6.210543,45.8393308
Duende,Quai de la Fontaine,"Nîmes, 30900",Nîmes,30,Gard,Nîmes,Occitanie,€€€€,Modern Cuisine,http://www.maison-albar-hotels-l-imperator.com,2 Stars,2.0,0,4.3527079,43.8388191
Py-r,19 descente de la Halle-aux-Poissons,"Toulouse, 31000",Toulouse,31,Haute-Garonne,Toulouse,Occitanie,€€€€,Creative,https://www.py-r.com/,2 Stars,2.0,0,1.4408583,43.599313
La Scène,32 avenue Matignon,"Paris, 75008",8th (Élysée),75,Paris,Paris,Île-de-France,€€€€,Modern Cuisine,https://www.la-scene.paris/,2 Stars,2.0,0,2.3144577,48.8720059
Les Morainières,1400 route de Marestel,"Jongieux, 73170",Chambéry,73,Savoie,Chambéry,Auvergne-Rhône-Alpes,€€€€,"Creative, Modern Cuisine",http://www.les-morainieres.com,2 Stars,2.0,0,5.7982975,45.7449451
La Pyramide - Maison Henriroux,14 boulevard Fernand-Point,"Vienne, 38200",Vienne,38,Isère,Grenoble,Auvergne-Rhône-Alpes,€€€€,Modern Cuisine,http://www.lapyramide.com/fr,2 Stars,2.0,0,4.8668625,45.5166376
Cédric Burtin,Chemin de Martorez,"Saint-Rémy, 71100",Chalon-sur-Saône,71,Saône-et-Loire,Mâcon,Bourgogne-Franche-Comté,€€€€,"Creative, Modern Cuisine",https://cedricburtin.com/fr/,2 Stars,2.0,0,4.8200267,46.7567708
La Merise,7 rue d'Eschbach,"Laubach, 67580",Haguenau-Wissembourg,67,Bas-Rhin,Strasbourg,Grand Est,€€€€,Modern Cuisine,https://www.lamerise.alsace/,2 Stars,2.0,0,7.7224093,48.8800665
L'Abysse au Pavillon Ledoyen,8 avenue Dutuit,"Paris, 75008",8th (Élysée),75,Paris,Paris,Île-de-France,€€€€,"Japanese, Creative",https://www.yannick-alleno.com/fr/,2 Stars,2.0,0,2.3164988,48.8662069
Racine,6 place Godinot,"Reims, 51100",Reims,51,Marne,Châlons-en-Champagne,Grand Est,€€€€,Creative,https://www.racine.re/,2 Stars,2.0,0,4.03752,49.2528607
Michel Kayser - Restaurant Alexandre,2 rue Xavier-Tronc,"Garons, 30128",Nîmes,30,Gard,Nîmes,Occitanie,€€€€,Modern Cuisine,https://www.michelkayser.com/fr/,2 Stars,2.0,0,4.4229251,43.7679586
L'Oiseau Blanc,19 avenue Kléber,"Paris, 75116",16th (Passy),75,Paris,Paris,Île-de-France,€€€€,Creative,https://www.peninsula.com/fr/paris/hotel-fine-dining/french-rooftop-loiseau-blanc,2 Stars,2.0,0,2.2933134,48.8707602
Maison Nouvelle,11 rue Rode,"Bordeaux, 33000",Bordeaux,33,Gironde,Bordeaux,Nouvelle-Aquitaine,€€€€,Modern Cuisine,http://www.maison-nouvelle.fr,2 Stars,2.0,0,-0.5721376,44.8524805
La Côte Saint-Jacques,14 faubourg de Paris,"Joigny, 89300",Sens,89,Yonne,Auxerre,Bourgogne-Franche-Comté,€€€€,Modern Cuisine,https://www.cotesaintjacques.com/,2 Stars,2.0,1,3.3853151,47.9833796
La Table de Pavie,5 place du Clocher,"Saint-Emilion, 33330",Libourne,33,Gironde,Bordeaux,Nouvelle-Aquitaine,€€€€,Creative,http://www.hoteldepavie.com,2 Stars,2.0,0,-0.1566263,44.8934495
Blanc,52 rue de Longchamp,"Paris, 75116",16th (Passy),75,Paris,Paris,Île-de-France,€€€€,Creative,https://blanc-paris.com/,2 Stars,2.0,0,2.2874808,48.8651172
La Table de Franck Putelat,"80 chemin des Anglais, au Sud de la Cité","Carcassonne, 11000",Carcassonne,11,Aude,Carcassonne,Occitanie,€€€€,"Modern Cuisine, Creative",https://www.franckputelat.com/,2 Stars,2.0,0,2.3603104,43.2013363
La Table de Yoann Conte,13 vieille route des Pensières,"Veyrier-du-Lac, 74290",Annecy,74,Haute-Savoie,Annecy,Auvergne-Rhône-Alpes,€€€€,Creative,http://yoann-conte.com,2 Stars,2.0,1,6.1721868,45.8889235
Auberge de l'Ill,2 rue de Collonges-au-Mont-d'Or,"Illhaeusern, 68970",Colmar-Ribeauvillé,68,Haut-Rhin,Colmar,Grand Est,€€€€,Classic Cuisine,https://www.auberge-de-l-ill.com/fr/,2 Stars,2.0,0,7.433043,48.1844003
La Table d'Olivier Nasti,9-13 rue du Général-de-Gaulle,"Kaysersberg, 68240",Colmar-Ribeauvillé,68,Haut-Rhin,Colmar,Grand Est,€€€€,Creative,https://www.lechambard.fr/fr/,2 Stars,2.0,0,7.265581,48.1386233
Anne de Bretagne,"Port de Gravette, 163 boulevard de la Tara","La Plaine-sur-Mer, 44770",Saint-Nazaire,44,Loire-Atlantique,Nantes,Pays de la Loire,€€€€,Creative,http://www.annedebretagne.com,2 Stars,2.0,0,-2.2134222,47.1547317
L'Auberge des Glazicks,7 rue de la Plage,"Plomodiern, 29550",Châteaulin,29,Finistère,Quimper,Bretagne,€€€€,Creative,http://www.aubergedesglazick.com,2 Stars,2.0,0,-4.2345193,48.1805696
Ekaitza,15 quai Maurice-Ravel,"Ciboure, 64500",Bayonne,64,Pyrénées-Atlantiques,Pau,Nouvelle-Aquitaine,€€€,"Creative, Modern Cuisine",https://www.restaurant-ekaitza.fr/,2 Stars,2.0,0,-1.6674639,43.3852589
L'Auberge de Saint-Rémy - Fanny Rey & Jonathan Wahid,12 boulevard Mirabeau,"Saint-Rémy-de-Provence, 13210",Arles,13,Bouches-du-Rhône,Marseille,Provence-Alpes-Côte d'Azur,€€€€,Modern Cuisine,https://www.aubergesaintremy.com/fr/,2 Stars,2.0,0,4.8333205,43.7885608
René et Maxime Meilleur,Hameau de Saint-Marcel,"Saint-Martin-de-Belleville, 73440",Albertville,73,Savoie,Chambéry,Auvergne-Rhône-Alpes,€€€€,"Creative, Regional Cuisine",http://www.la-bouitte.com,2 Stars,2.0,0,6.5133065,45.3690463
Cyril Attrazic,10 route du Languedoc,"Aumont-Aubrac, 48130",Mende,48,Lozère,Mende,Occitanie,€€€€,"Creative, Modern Cuisine",,2 Stars,2.0,1,3.2877885,44.7169426
La Villa Archange,Rue de l'Ouest,"Le Cannet, 06110",Grasse,06,Alpes-Maritimes,Nice,Provence-Alpes-Côte d'Azur,€€€€,Modern Cuisine,http://www.bruno-oger.com,2 Stars,2.0,0,7.014556,43.5716556
L'Auberge de Montmin,"1983 route de Talloires, Col de la Forclaz","Talloires-Montmin, 74210",Annecy,74,Haute-Savoie,Annecy,Auvergne-Rhône-Alpes,€€€€,"Mediterranean Cuisine, Creative",http://www.aubergedemontmin.com,2 Stars,2.0,1,6.2486842,45.8072811
Maison Rostang,20 rue Rennequin,"Paris, 75017",17th (Batignolles-Monceau),75,Paris,Paris,Île-de-France,€€€€,Classic Cuisine,https://www.maisonrostang.com/,2 Stars,2.0,0,2.2985363,48.881407
Lalique,1707 route des Gourgues,"Bommes, 33210",Langon,33,Gironde,Bordeaux,Nouvelle-Aquitaine,€€€€,Modern Cuisine,https://www.lafauriepeyragueylalique.com/art-de-la-table/le-restaurant/,2 Stars,2.0,0,-0.3374123,44.5493811
Christophe Hay - Fleur de Loire,26 quai Villebois-Mareuil,"Blois, 41000",Blois,41,Loir-et-Cher,Blois,Centre-Val de Loire,€€€€,"Modern Cuisine, Creative",http://www.fleurdeloire.com,2 Stars,2.0,1,1.3378048,47.5823386
La Grand'Vigne - Les Sources de Caudalie,Chemin de Smith-Haut-Lafitte,"Martillac, 33650",Bordeaux,33,Gironde,Bordeaux,Nouvelle-Aquitaine,€€€€,Modern Cuisine,https://www.sources-caudalie.com/,2 Stars,2.0,0,-0.5571095,44.7310086
L'Observatoire du Gabriel,10 place de la Bourse,"Bordeaux, 33000",Bordeaux,33,Gironde,Bordeaux,Nouvelle-Aquitaine,€€€€,"Modern Cuisine, Creative",https://le-gabriel-bordeaux.fr,2 Stars,2.0,0,-0.5707147,44.8413505
Maison Ronan Kervarrec,1 impasse du Vieux-Bourg,"Saint-Grégoire, 35760",Rennes,35,Ille-et-Vilaine,Rennes,Bretagne,€€€€,Modern Cuisine,http://www.le-saison.com,2 Stars,2.0,0,-1.6805561,48.1533015
La Voile - La Réserve Ramatuelle,Chemin de la Quessine,"Ramatuelle, 83350",Draguignan,83,Var,Toulon,Provence-Alpes-Côte d'Azur,€€€€,Modern Cuisine,https://www.lareserve-ramatuelle.com/,2 Stars,2.0,0,6.6481676,43.1923476
La Grenouillère,19 rue de la Grenouillère,"La Madelaine-sous-Montreuil, 62170",Montreuil,62,Pas-de-Calais,Arras,Hauts-de-France,€€€€,Creative,https://www.lagrenouillere.fr/,2 Stars,2.0,1,1.7544175,50.4710226
Château de Beaulieu - Christophe Dufossé,1098 rue de Lillers,"Busnes, 62350",Béthune,62,Pas-de-Calais,Arras,Hauts-de-France,€€€€,Modern Cuisine,https://www.lechateaudebeaulieu.fr,2 Stars,2.0,1,2.5070873,50.581874
Le Pressoir d'Argent - Gordon Ramsay,"InterContinental Bordeaux - Le Grand Hôtel, 2-5 place de la Comédie","Bordeaux, 33000",Bordeaux,33,Gironde,Bordeaux,Nouvelle-Aquitaine,€€€€,Modern Cuisine,https://bordeaux.intercontinental.com/le-pressoir-dargent-gordon-ramsay/,2 Stars,2.0,0,-0.5747973,44.8424463
Le Parc Les Crayères,64 boulevard Henry-Vasnier,"Reims, 51100",Reims,51,Marne,Châlons-en-Champagne,Grand Est,€€€€,Modern Cuisine,https://lescrayeres.com/fr/restaurant-le-parc.html,2 Stars,2.0,0,4.0517461,49.2410909
Georges Blanc,Place du Marché,"Vonnas, 01540",Bourg-en-Bresse,01,Ain,Bourg-en-Bresse,Auvergne-Rhône-Alpes,€€€€,Classic Cuisine,https://www.georgesblanc.com/fr/,2 Stars,2.0,0,4.9894987,46.2201083
Sylvestre Wahid - Les Grandes Alpes,"28 rue de l'Église, Courchevel 1850","Courchevel, 73120",Albertville,73,Savoie,Chambéry,Auvergne-Rhône-Alpes,€€€€,Creative,https://restaurantsylvestre.com,2 Stars,2.0,0,6.6349308,45.4144213
Flaveur,25 rue Gubernatis,"Nice, 06000",Nice,06,Alpes-Maritimes,Nice,Provence-Alpes-Côte d'Azur,€€€€,Creative,https://www.restaurant-flaveur.com/,2 Stars,2.0,0,7.2718302,43.7014072
Le Clarence,31 avenue Franklin-D.-Roosevelt,"Paris, 75008",8th (Élysée),75,Paris,Paris,Île-de-France,€€€€,Creative,https://www.le-clarence.paris/la-table/,2 Stars,2.0,0,2.3098732,48.8673498
La Table Lionel Giraud,Rond-point de la Liberté - 68 avenue du Général-Leclerc,"Narbonne, 11100",Narbonne,11,Aude,Carcassonne,Occitanie,€€€€,"Creative, Modern Cuisine",https://maison.saintcrescent.com/,2 Stars,2.0,0,2.9918502,43.1743172
La Côte d'Or,"Le Relais Bernard Loiseau, 2 avenue Bernard-Loiseau","Saulieu, 21210",Montbard,21,Côte-d'Or,Dijon,Bourgogne-Franche-Comté,€€€€,Modern Cuisine,https://www.bernard-loiseau.com/,2 Stars,2.0,0,4.2321852,47.2797873
William Frachot,"Hostellerie du Chapeau Rouge, 5 rue Michelet","Dijon, 21000",Dijon,21,Côte-d'Or,Dijon,Bourgogne-Franche-Comté,€€€€,"Modern Cuisine, Creative",https://www.chapeau-rouge.fr/fr/restaurant-gastronomique-dijon,2 Stars,2.0,0,5.0356396,47.3212722
La Fourchette des Ducs,6 rue de la Gare,"Obernai, 67210",Sélestat-Erstein,67,Bas-Rhin,Strasbourg,Grand Est,€€€€,Modern Cuisine,https://www.lafourchettedesducs.com/fr/,2 Stars,2.0,0,7.488355,48.4620365
Baumanière 1850,"Le Strato, Route de Bellecôte, Courchevel 1850","Courchevel, 73120",Albertville,73,Savoie,Chambéry,Auvergne-Rhône-Alpes,€€€€,Creative,https://www.hotelstrato.com/,2 Stars,2.0,0,6.6380783,45.4102934
Casadelmar,Route de Palombaggia,"Porto-Vecchio, 20137",Sartène,2A,Corse-du-Sud,Ajaccio,Corse,€€€€,Modern Cuisine,https://www.casadelmar.fr,2 Stars,2.0,0,9.3099771,41.5948102
Le Chabichou by Stéphane Buron,"90 rue des Chenus, Courchevel 1850","Courchevel, 73120",Albertville,73,Savoie,Chambéry,Auvergne-Rhône-Alpes,€€€€,Modern Cuisine,http://www.chabichou-courchevel.com,2 Stars,2.0,0,6.629984,45.41616
La Chèvre d'Or,Rue du Barri,"Èze, 06360",Nice,06,Alpes-Maritimes,Nice,Provence-Alpes-Côte d'Azur,€€€€,Creative,https://www.chevredor.com/,2 Stars,2.0,0,7.3620885,43.727378
La Table d'Aurélien Largeau,4 rue Jean-Bart,"Biarritz, 64200",Bayonne,64,Pyrénées-Atlantiques,Pau,Nouvelle-Aquitaine,€€€€,Modern Cuisine,https://www.latabledaurelienlargeau.fr/,1 Star,1.0,0,-1.5586234,43.4810141
Ombellule,36 cours Franklin-Roosevelt,"Lyon, 69006",Lyon,69,Rhône,Lyon,Auvergne-Rhône-Alpes,€€€€,Creative,https://www.ombellule.fr/,1 Star,1.0,0,4.847,45.768825
Bulle d'Osier,"Clos Vauban, 1 place du Colonel-de-Grouchy","Langres, 52200",Langres,52,Haute-Marne,Chaumont,Grand Est,€€€€,Creative,https://closvauban.com/,1 Star,1.0,0,5.3334675,47.8589048
Fario,12 rue Saint-Ferréol,"Céret, 66400",Céret,66,Pyrénées-Orientales,Perpignan,Occitanie,€€€,Modern Cuisine,http://www.farioceret.fr,1 Star,1.0,0,2.747708,42.4863199
Ineffable,3 rue Grande,"Barbentane, 13570",Arles,13,Bouches-du-Rhône,Marseille,Provence-Alpes-Côte d'Azur,€€€,Modern Cuisine,https://restaurant-ineffable.fr,1 Star,1.0,0,4.748067,43.8991167
Yozora,1 parvis des Droits-de-l'Homme,"Metz, 57000",Metz,57,Moselle,Metz,Grand Est,€€€€,Creative,https://restaurant-yozora.com,1 Star,1.0,0,6.1816227,49.1080636
Amicis,19 rue Mably,"Bordeaux, 33000",Bordeaux,33,Gironde,Bordeaux,Nouvelle-Aquitaine,€€€€,Creative,https://www.restaurant-amicis.fr/,1 Star,1.0,0,-0.5772326,44.8436643
JU - Maison de Cuisine,2 rue Lucien-Blanc,"Bonnieux, 84480",Apt,84,Vaucluse,Avignon,Provence-Alpes-Côte d'Azur,€€€,Modern Cuisine,https://ju-maisondecuisine.com/fr/,1 Star,1.0,0,5.3065565,43.8231711
Freia,22 boulevard de Berlin,"Nantes, 44000",Nantes,44,Loire-Atlantique,Nantes,Pays de la Loire,€€€,Creative,http://www.freia-restaurant.com,1 Star,1.0,0,-1.5361316,47.2166676
Vous,36 rue Saint-François,"Megève, 74120",Bonneville,74,Haute-Savoie,Annecy,Auvergne-Rhône-Alpes,€€€€,Modern Cuisine,http://www.juliengatillon.fr/vous,1 Star,1.0,0,6.6183242,45.8574776
La Cheneaudière - Le Feuillage,3 rue du Vieux-Moulin,"Colroy-la-Roche, 67420",Molsheim,67,Bas-Rhin,Strasbourg,Grand Est,€€€€,Creative,https://www.cheneaudiere.com/,1 Star,1.0,0,7.1837931,48.3908475
Nuance,Roz An Tremen,"Plomeur, 29120",Quimper,29,Finistère,Quimper,Bretagne,€€€,Modern Cuisine,http://nuance-restaurant-plomeur.eatbu.com,1 Star,1.0,0,-4.329514,47.8372701
Aldehyde,5 rue du Pont-Louis-Philippe,"Paris, 75004",4th (Hôtel-de-Ville),75,Paris,Paris,Île-de-France,€€€€,Creative,https://aldehyde.paris/,1 Star,1.0,0,2.3554,48.85496
Acte 2 Yannick Delpech,1 rue Paneboeuf,"Toulouse, 31000",Toulouse,31,Haute-Garonne,Toulouse,Occitanie,€€€,Modern Cuisine,https://yannickdelpech-acte2.fr/,1 Star,1.0,0,1.4605546,43.5931972
Arnaud Donckele & Maxime Frédéric at Louis Vuitton,Place des Lices,"Saint-Tropez, 83990",Draguignan,83,Var,Toulon,Provence-Alpes-Côte d'Azur,€€€€,Mediterranean Cuisine,,1 Star,1.0,0,6.6410614,43.2702906
Monique,1 ter impasse du Charron,"Calvisson, 30420",Nîmes,30,Gard,Nîmes,Occitanie,€€€,Modern Cuisine,http://www.monique-restaurant.com,1 Star,1.0,0,4.1927965,43.7845468
Kern,393 route de la Tassonnière,"Seytroux, 74430",Thonon-les-Bains,74,Haute-Savoie,Annecy,Auvergne-Rhône-Alpes,€€€,Modern Cuisine,http://restaurant-kern.fr,1 Star,1.0,0,6.6164302,46.2496878
Arbane,7 rue Noël,"Reims, 51100",Reims,51,Marne,Châlons-en-Champagne,Grand Est,€€€€,Creative,http://www.arbane-philippe-mille.com,1 Star,1.0,0,4.0272938,49.2573961
Le Chamarlenc,19 rue Raphaël,"Puy-en-Velay, 43000",Le Puy-en-Velay,43,Haute-Loire,Le Puy-en-Velay,Auvergne-Rhône-Alpes,€€€,Creative,https://www.restaurantlechamarlenc.com/,1 Star,1.0,0,3.8828324,45.0442309
Le Cèdre de Montcaud,Hameau de Combes,"Sabran, 30200",Nîmes,30,Gard,Nîmes,Occitanie,€€€€,Modern Cuisine,https://www.chateaudemontcaud.com/restaurant/restaurant-de-montcaud,1 Star,1.0,0,4.5709434,44.1719004
Enfin,2 chemin du Château-d'Andlau,"Barr, 67140",Sélestat-Erstein,67,Bas-Rhin,Strasbourg,Grand Est,€€€€,Modern Cuisine,http://www.enfin-barr.com,1 Star,1.0,0,7.4254505,48.4049121
Mallory Gabsi,28 rue des Acacias,"Paris, 75017",17th (Batignolles-Monceau),75,Paris,Paris,Île-de-France,€€€€,Modern Cuisine,http://www.mallory-gabsi.com,1 Star,1.0,0,2.2915873,48.876837
Ginko,70 rue de l'Hôpital-Militaire,"Lille, 59000",Lille,59,Nord,Lille,Hauts-de-France,€€€,Modern Cuisine,https://www.ginkorestaurant.fr/,1 Star,1.0,0,3.0600982,50.6353027
Auguste,54 rue de Bourgogne,"Paris, 75007",7th (Palais-Bourbon),75,Paris,Paris,Île-de-France,€€€€,Modern Cuisine,https://www.restaurantauguste.fr/,1 Star,1.0,0,2.317003,48.8561689
L'Écrin,"Hôtel de Crillon, 10 place de la Concorde","Paris, 75008",8th (Élysée),75,Paris,Paris,Île-de-France,€€€€,Creative,https://www.rosewoodhotels.com/fr/hotel-de-crillon/dining/l-ecrin,1 Star,1.0,0,2.32114,48.8673
"114, Faubourg","Le Bristol, 114 rue du Faubourg-Saint-Honoré","Paris, 75008",8th (Élysée),75,Paris,Paris,Île-de-France,€€€€,Modern Cuisine,https://www.oetkercollection.com/fr/hotels/le-bristol-paris/restaurants-et-bar/114-faubourg/,1 Star,1.0,0,2.3143326,48.8718054
Quinsou,33 rue de l'Abbé-Grégoire,"Paris, 75006",6th (Luxembourg),75,Paris,Paris,Île-de-France,€€€€,Creative,https://www.quinsourestaurant.fr/,1 Star,1.0,0,2.325489,48.8476485
Mavrommatis,42 rue Daubenton,"Paris, 75005",5th (Panthéon),75,Paris,Paris,Île-de-France,€€€€,"Greek, Mediterranean Cuisine",https://www.mavrommatis.com/,1 Star,1.0,0,2.3511901,48.8405528
L'Atelier de Joël Robuchon - Étoile,133 avenue des Champs-Élysées,"Paris, 75008",8th (Élysée),75,Paris,Paris,Île-de-France,€€€€,Creative,https://atelier-robuchon-etoile.com/,1 Star,1.0,0,2.2973168,48.8728404
Manoir de Lan-Kerellec,11 allée centrale de Lan-Kerellec,"Trébeurden, 22560",Lannion,22,Côtes-d'Armor,Saint-Brieuc,Bretagne,€€€€,"Seafood, Modern Cuisine",http://www.lankerellec.com,1 Star,1.0,0,-3.5847022,48.7766651
Yam'Tcha,121 rue Saint-Honoré,"Paris, 75001",1st (Louvre),75,Paris,Paris,Île-de-France,€€€€,Creative,https://www.yamtcha.com/,1 Star,1.0,0,2.341813,48.8615065
Alliance,5 rue de Poissy,"Paris, 75005",5th (Panthéon),75,Paris,Paris,Île-de-France,€€€€,Modern Cuisine,https://www.restaurant-alliance.fr/,1 Star,1.0,0,2.3532787,48.8500098
La Dame de Pic,20 rue du Louvre,"Paris, 75001",1st (Louvre),75,Paris,Paris,Île-de-France,€€€€,Creative,https://anne-sophie-pic.com/paris/,1 Star,1.0,0,2.3412069,48.8613303
Maison Avoise,58 promenade du Verger,"Issy-les-Moulineaux, 92130",Boulogne-Billancourt,92,Hauts-de-Seine,Nanterre,Île-de-France,€€€,Modern Cuisine,http://www.maisonavoise.com,1 Star,1.0,0,2.2665575,48.8173763
Frenchie,5 rue du Nil,"Paris, 75002",2nd (Bourse),75,Paris,Paris,Île-de-France,€€€€,Modern Cuisine,http://www.frenchie-restaurant.com,1 Star,1.0,0,2.3478539,48.867722
L'Empreinte,2 Grande-Rue,"Buxy, 71390",Chalon-sur-Saône,71,Saône-et-Loire,Mâcon,Bourgogne-Franche-Comté,€€€,Modern Cuisine,https://www.lempreinte-restaurant.fr/,1 Star,1.0,0,4.694296,46.712869
Ochre,56 rue du Gué,"Rueil-Malmaison, 92500",Nanterre,92,Hauts-de-Seine,Nanterre,Île-de-France,€€€€,Modern Cuisine,http://www.ochre.fr,1 Star,1.0,0,2.1830535,48.8778387
Mareluna,55 avenue de Lérins,"Théoule-sur-Mer, 06590",Grasse,06,Alpes-Maritimes,Nice,Provence-Alpes-Côte d'Azur,€€€€,Creative,https://www.chateau-de-theoule.com/fr/mareluna/,1 Star,1.0,0,6.9395889,43.5080143
Le Charlie,Bella Vista Hôtel,"Porticcio, 20166",Ajaccio,2A,Corse-du-Sud,Ajaccio,Corse,€€€€,Modern Cuisine,https://www.lapiscineporticcio.com/the-restaurant,1 Star,1.0,0,8.8105225,41.8950702
Amâlia,32 rue de la Fontaine-au-Roi,"Paris, 75011",11th (Popincourt),75,Paris,Paris,Île-de-France,€€€€,Modern Cuisine,http://www.amaliarestaurant.com,1 Star,1.0,0,2.371705,48.8681622
Hakuba,"Cheval Blanc Paris, 8 quai du Louvre","Paris, 75001",1st (Louvre),75,Paris,Paris,Île-de-France,€€€€,Japanese,https://www.chevalblanc.com/fr/maison/paris/restaurants-et-bars/hakuba/,1 Star,1.0,0,2.3422408,48.8587333
Chez Jeannette,1204 chemin de la Commanderie-de-Peyrassol,"Flassans-sur-Issole, 83340",Brignoles,83,Var,Toulon,Provence-Alpes-Côte d'Azur,€€€,Modern Cuisine,https://www.peyrassol.com/restaurants-hebergements/restaurants/chez-jeannette/,1 Star,1.0,0,6.2636325,43.3778445
La Grande Cascade,"Allée de Longchamp, Bois de Boulogne","Paris, 75016",16th (Passy),75,Paris,Paris,Île-de-France,€€€€,Classic Cuisine,https://www.restaurantsparisiens.com/la-grande-cascade/,1 Star,1.0,0,2.2404762,48.8626663
Maison Dubois,2 rue de Vienne,"Paris, 75008",8th (Élysée),75,Paris,Paris,Île-de-France,€€€€,Modern Cuisine,https://maisonduboisparis.fr/,1 Star,1.0,0,2.321206,48.8762472
La Table de l'Alpaga,"Alpaga, 66 allée des Marmoussets, route du Prariand","Megève, 74120",Bonneville,74,Haute-Savoie,Annecy,Auvergne-Rhône-Alpes,€€€€,"Modern Cuisine, Creative",https://www.beaumier.com/fr/proprietes/hotel-alpaga/gastronomie/,1 Star,1.0,0,6.600987,45.8524843
L'Éveil des Sens,429 boulevard Paul-Lintier,"Mayenne, 53100",Mayenne,53,Mayenne,Laval,Pays de la Loire,€€€,Modern Cuisine,http://www.restaurant-leveildessens.fr,1 Star,1.0,0,-0.6084258,48.3060431
Le Pavillon - Hôtel Westminster,Avenue du Verger,"Le Touquet-Paris-Plage, 62520",Montreuil,62,Pas-de-Calais,Arras,Hauts-de-France,€€€€,Creative,https://www.hotelsbarriere.com/fr/le-touquet/le-westminster/restaurants-et-bars/le-pavillon.html,1 Star,1.0,0,1.5914671,50.5221852
Nomicos,16 avenue Hubert-Germain,"Paris, 75116",16th (Passy),75,Paris,Paris,Île-de-France,€€€€,Modern Cuisine,https://www.nomicos.fr,1 Star,1.0,0,2.2830545,48.8702767
Alan Geaam,19 rue Lauriston,"Paris, 75016",16th (Passy),75,Paris,Paris,Île-de-France,€€€€,Creative,https://restaurant.alangeaam.fr/,1 Star,1.0,0,2.2924321,48.8715425
Pollen,18 rue Joseph-Vernet,"Avignon, 84000",Avignon,84,Vaucluse,Avignon,Provence-Alpes-Côte d'Azur,€€€€,Modern Cuisine,https://www.pollen-restaurant.fr/,1 Star,1.0,0,4.8035568,43.9493415
Relais Louis XIII,8 rue des Grands-Augustins,"Paris, 75006",6th (Luxembourg),75,Paris,Paris,Île-de-France,€€€€,Classic Cuisine,https://relaislouis13.fr/,1 Star,1.0,0,2.3408104,48.8546533
Armani Ristorante,7 place du Québec,"Paris, 75006",6th (Luxembourg),75,Paris,Paris,Île-de-France,€€€€,Italian,https://www.armani.com/fr-fr/experience/armani-restaurant,1 Star,1.0,0,2.3325851,48.8537124
Yoshinori,18 rue Grégoire-de-Tours,"Paris, 75006",6th (Luxembourg),75,Paris,Paris,Île-de-France,€€€€,Modern Cuisine,https://www.yoshinori-paris.com/,1 Star,1.0,0,2.3377712,48.8528439
Neige d'Été,12 rue de l'Amiral-Roussin,"Paris, 75015",15th (Vaugirard),75,Paris,Paris,Île-de-France,€€€€,Creative,https://www.neigedete.fr/,1 Star,1.0,0,2.2989942,48.8454303
Le Chiberta,3 rue Arsène-Houssaye,"Paris, 75008",8th (Élysée),75,Paris,Paris,Île-de-France,€€€€,Modern Cuisine,https://www.lechiberta.com/,1 Star,1.0,0,2.2978116,48.8735298
Ze Kitchen Galerie,4 rue des Grands-Augustins,"Paris, 75006",6th (Luxembourg),75,Paris,Paris,Île-de-France,€€€€,Creative,https://zekitchengalerie.fr/,1 Star,1.0,0,2.3412194,48.85513
Le Violon d'Ingres,135 rue Saint-Dominique,"Paris, 75007",7th (Palais-Bourbon),75,Paris,Paris,Île-de-France,€€€€,"Traditional Cuisine, Classic Cuisine",http://www.leviolondingres.paris,1 Star,1.0,0,2.3017796,48.8582135
Le Prieuré,7 place du Chapitre,"Villeneuve-lès-Avignon, 30400",Nîmes,30,Gard,Nîmes,Occitanie,€€€€,Creative,https://www.leprieure.com/,1 Star,1.0,0,4.7962522,43.9631479
Le Baudelaire,"Le Burgundy, 6-8 rue Duphot","Paris, 75001",1st (Louvre),75,Paris,Paris,Île-de-France,€€€€,Modern Cuisine,https://www.lebaudelaire.com,1 Star,1.0,0,2.3257735,48.8680116
La Mère Germaine,3 rue du Commandant-Lemaître,"Châteauneuf-du-Pape, 84230",Carpentras,84,Vaucluse,Avignon,Provence-Alpes-Côte d'Azur,€€€€,Modern Cuisine,https://www.lameregermaine.com/,1 Star,1.0,0,4.8315131,44.0557551
Albert 1er,"Hameau Albert-1er, 38 route du Bouchet","Chamonix-Mont-Blanc, 74400",Bonneville,74,Haute-Savoie,Annecy,Auvergne-Rhône-Alpes,€€€€,Modern Cuisine,https://www.hameaualbert.fr,1 Star,1.0,0,6.8739886,45.9249264
Le Gourmet de Sèze,125 rue de Sèze,"Lyon, 69006",Lyon,69,Rhône,Lyon,Auvergne-Rhône-Alpes,€€€€,Classic Cuisine,https://www.legourmetdeseze.com/,1 Star,1.0,0,4.8559442,45.7691128
Datil,13 rue des Gravilliers,"Paris, 75003",3rd (Temple),75,Paris,Paris,Île-de-France,€€€€,Modern Cuisine,http://www.datil-restaurant.fr,1 Star,1.0,0,2.3572627,48.8636089
Symbiose,7 avenue Jean-Mermoz,"Cabourg, 14390",Lisieux,14,Calvados,Caen,Normandie,€€€,Modern Cuisine,https://www.symbiose-cabourg.com/,1 Star,1.0,0,-0.1143153,49.2924541
Géosmine,71 rue de la Folie-Méricourt,"Paris, 75011",11th (Popincourt),75,Paris,Paris,Île-de-France,€€€€,"Creative, Modern Cuisine",http://www.geosmine.com,1 Star,1.0,0,2.3705908,48.8655091
Septime,80 rue de Charonne,"Paris, 75011",11th (Popincourt),75,Paris,Paris,Île-de-France,€€€€,Modern Cuisine,https://www.septime-charonne.fr/,1 Star,1.0,1,2.3806905,48.8536287
Qui Plume la Lune,50 rue Amelot,"Paris, 75011",11th (Popincourt),75,Paris,Paris,Île-de-France,€€€€,Modern Cuisine,http://www.quiplumelalune.fr,1 Star,1.0,0,2.3683449,48.8590909
Comice,31 avenue de Versailles,"Paris, 75016",16th (Passy),75,Paris,Paris,Île-de-France,€€€€,Modern Cuisine,http://www.comice.paris,1 Star,1.0,0,2.2761393,48.8495058
Le George,"Four Seasons George V, 31 avenue George-V","Paris, 75008",8th (Élysée),75,Paris,Paris,Île-de-France,€€€€,Italian,https://www.fourseasons.com/fr/paris/dining/restaurants/le_george/,1 Star,1.0,1,2.3007485,48.8687251
AT,4bis rue du Cardinal-Lemoine,"Paris, 75005",5th (Panthéon),75,Paris,Paris,Île-de-France,€€€€,Creative,https://www.atsushitanaka.com/,1 Star,1.0,0,2.3544763,48.8496507
Ô Saveurs,8 place des Ormeaux,"Rouffiac-Tolosan, 31180",Toulouse,31,Haute-Garonne,Toulouse,Occitanie,€€€,Modern Cuisine,https://www.o-saveurs.com/,1 Star,1.0,0,1.524975,43.664
Restaurant H,13 rue Jean-Beausire,"Paris, 75004",4th (Hôtel-de-Ville),75,Paris,Paris,Île-de-France,€€€,Creative,https://www.restauranth.com/,1 Star,1.0,0,2.368087,48.8543896
ES,91 rue de Grenelle,"Paris, 75007",7th (Palais-Bourbon),75,Paris,Paris,Île-de-France,€€€€,"Modern Cuisine, Creative",https://restaurant-es.com,1 Star,1.0,0,2.3211774,48.856449
Helen,3 rue Berryer,"Paris, 75008",8th (Élysée),75,Paris,Paris,Île-de-France,€€€€,Seafood,https://www.helenrestaurant.com/,1 Star,1.0,0,2.3041107,48.8750701
Lucas Carton,9 place de la Madeleine,"Paris, 75008",8th (Élysée),75,Paris,Paris,Île-de-France,€€€€,Modern Cuisine,https://www.lucascarton.com/,1 Star,1.0,0,2.3232442,48.8697476
L'Arôme,3 rue Saint-Philippe-du-Roule,"Paris, 75008",8th (Élysée),75,Paris,Paris,Île-de-France,€€€€,Modern Cuisine,http://www.larome-paris.com,1 Star,1.0,0,2.3089154,48.8732722
La Terrasse - Cheval Blanc St-Tropez,Plage de la Bouillabaisse,"Saint-Tropez, 83990",Draguignan,83,Var,Toulon,Provence-Alpes-Côte d'Azur,€€€€,Mediterranean Cuisine,https://www.chevalblanc.com/fr/maison/st-tropez/restaurants-et-bars/le-restaurant-la-terrasse-st-tropez/,1 Star,1.0,0,6.6261677,43.2666909
Les Belles Perdrix de Troplong Mondot,Château Troplong Mondot,"Saint-Emilion, 33330",Libourne,33,Gironde,Bordeaux,Nouvelle-Aquitaine,€€€€,Modern Cuisine,https://www.troplong-mondot.com/hospitality/les-belles-perdrix/,1 Star,1.0,1,-0.1407129,44.8884848
Auberge de Montfleury,200 route des Cépages,"Saint-Germain, 07170",Largentière,07,Ardèche,Privas,Auvergne-Rhône-Alpes,€€€,Modern Cuisine,http://www.auberge-de-montfleury.fr,1 Star,1.0,0,4.4714401,44.5635926
Bacôve,8 rue Caventou,"Saint-Omer, 62500",Saint-Omer,62,Pas-de-Calais,Arras,Hauts-de-France,€€€,Modern Cuisine,https://restaurant-bacove.com/fr,1 Star,1.0,0,2.2554187,50.7482544
La Flibuste,"1001 avenue de la Batterie, Marina Baie des Anges","Villeneuve-Loubet, 06270",Grasse,06,Alpes-Maritimes,Nice,Provence-Alpes-Côte d'Azur,€€€€,Modern Cuisine,https://www.restaurantlaflibuste.fr/laflibuste/,1 Star,1.0,0,7.1367775,43.6346532
Espadon,"Ritz Paris, 15 place Vendôme","Paris, 75001",1st (Louvre),75,Paris,Paris,Île-de-France,€€€€,Creative,https://sites.ritzparis.com/espadon/,1 Star,1.0,0,2.329016,48.8680554
Maison Medard,19 place des Tilleuls,"Boulleret, 18240",Bourges,18,Cher,Bourges,Centre-Val de Loire,€€€,"Modern Cuisine, Creative",https://www.maisonmedard.com,1 Star,1.0,0,2.8743311,47.4240084
Le Art,"Château de la Gaude, 3959 route des Pinchinats","Aix-en-Provence, 13100",Aix-en-Provence,13,Bouches-du-Rhône,Marseille,Provence-Alpes-Côte d'Azur,€€€€,Modern Cuisine,http://www.chateaudelagaude.com,1 Star,1.0,0,5.478535,43.568911
Château d'Origny,2210 route de Roanne,"Ouches, 42155",Roanne,42,Loire,Saint-Étienne,Auvergne-Rhône-Alpes,€€€€,Modern Cuisine,https://restaurant.chateaudorigny.com/,1 Star,1.0,0,4.0170014,46.0235156
Le Bon Accueil,1 chemin de la Grande-Source,"Malbuisson, 25160",Pontarlier,25,Doubs,Besançon,Bourgogne-Franche-Comté,€€€,Modern Cuisine,https://www.le-bon-accueil.fr,1 Star,1.0,0,6.3033347,46.7972986
La Table des Pères - Domaine du Château des Pères,Route de Boistrudan,"Piré-Chancé, 35150",Rennes,35,Ille-et-Vilaine,Rennes,Bretagne,€€€,Creative,http://www.chateaudesperes.fr,1 Star,1.0,0,-1.4277611,47.992236
Restaurant Pierre Grein,180 avenue Régis-Ryckebusch,"Manosque, 04100",Forcalquier,04,Alpes-de-Haute-Provence,Digne-les-Bains,Provence-Alpes-Côte d'Azur,€€€€,"Modern Cuisine, Provençal",http://www.restaurantpierregrein.fr,1 Star,1.0,0,5.7987402,43.830996
Les Terrasses de Lyon,"Villa Florentine, 25 montée Saint-Barthélémy","Lyon, 69005",Lyon,69,Rhône,Lyon,Auvergne-Rhône-Alpes,€€€€,Modern Cuisine,https://www.villaflorentine.com/fr/restaurant.html,1 Star,1.0,0,4.825745,45.76325
Le Verbois,"6 rue la Grande-Folie, à Saint-Maximin","Chantilly, 60740",Senlis,60,Oise,Beauvais,Hauts-de-France,€€€€,Modern Cuisine,https://www.leverbois.fr,1 Star,1.0,0,2.4667838,49.2216723
Radio,43 avenue Pierre-et-Marie-Curie,"Chamalières, 63400",Clermont-Ferrand,63,Puy-de-Dôme,Clermont-Ferrand,Auvergne-Rhône-Alpes,€€€€,Modern Cuisine,https://www.hotel-radio.fr/,1 Star,1.0,0,3.0615791,45.7699763
Guy Lassausaie,3 rue de Belle-Sise,"Chasselay, 69380",Villefranche-sur-Saône,69,Rhône,Lyon,Auvergne-Rhône-Alpes,€€€,Modern Cuisine,https://www.guy-lassausaie.com/,1 Star,1.0,0,4.7703905,45.8727258
Auberge du Vert Mont,1318 rue du Mont-Noir,"Boeschepe, 59299",Dunkerque,59,Nord,Lille,Hauts-de-France,€€,"Creative, Modern Cuisine",https://www.vertmont.fr/,1 Star,1.0,1,2.7033586,50.7929337
Pertinence,29 rue de l'Exposition,"Paris, 75007",7th (Palais-Bourbon),75,Paris,Paris,Île-de-France,€€€€,Modern Cuisine,http://www.restaurantpertinence.com,1 Star,1.0,0,2.3033772,48.8571707
Tour d'Argent,15 quai de la Tournelle,"Paris, 75005",5th (Panthéon),75,Paris,Paris,Île-de-France,€€€€,Modern Cuisine,https://tourdargent.com/,1 Star,1.0,0,2.3549236,48.8498353
L'Orée de la Forêt,255 rue de la Forêt,"Étouy, 60600",Clermont,60,Oise,Beauvais,Hauts-de-France,€€€€,Modern Cuisine,https://www.loreedelaforet.fr/,1 Star,1.0,0,2.36804,49.41545
L'Ostal,16 rue Claussmann,"Clermont-Ferrand, 63000",Clermont-Ferrand,63,Puy-de-Dôme,Clermont-Ferrand,Auvergne-Rhône-Alpes,€€€€,"Modern Cuisine, Creative",https://www.lostal-restaurant.fr/,1 Star,1.0,1,3.0879692,45.7810567
Jean-Claude Leclerc,12 rue Saint-Adjutor,"Clermont-Ferrand, 63000",Clermont-Ferrand,63,Puy-de-Dôme,Clermont-Ferrand,Auvergne-Rhône-Alpes,€€€€,Modern Cuisine,https://www.restaurant-jcl.com/,1 Star,1.0,0,3.0804584,45.7788173
Le Pily,1 rue du Pont-Tournant,"Cherbourg-en-Cotentin, 50100",Cherbourg,50,Manche,Saint-Lô,Normandie,€€€,Creative,https://www.restaurant-le-pily.com/,1 Star,1.0,0,-1.6199211,49.6392432
Les Trois Rochers,"16 rue du Phare, à Sainte-Marine","Combrit, 29120",Quimper,29,Finistère,Quimper,Bretagne,€€€,Modern Cuisine,https://www.trimen.fr/,1 Star,1.0,0,-4.1191145,47.8734453
L'Arnsbourg,18 Untermuhlthal,"Baerenthal, 57230",Sarreguemines,57,Moselle,Metz,Grand Est,€€€€,Modern Cuisine,https://www.arnsbourg.com,1 Star,1.0,0,7.5440087,48.9500545
Le Manoir du Lys,Route de Juvigny-sous-Andaine,"Bagnoles-de-l'Orne, 61140",Alençon,61,Orne,Alençon,Normandie,€€€€,Modern Cuisine,https://www.manoir-du-lys.fr/,1 Star,1.0,0,-0.4443803,48.5623198
Bessem,183 avenue de la République,"Mandelieu-La Napoule, 06210",Grasse,06,Alpes-Maritimes,Nice,Provence-Alpes-Côte d'Azur,€€€€,Mediterranean Cuisine,https://www.bessem-restaurant.com/,1 Star,1.0,0,6.9334529,43.54057
ONICE,5 rue Antoine-Gautier,"Nice, 06300",Nice,06,Alpes-Maritimes,Nice,Provence-Alpes-Côte d'Azur,€€€€,Modern Cuisine,http://www.restaurantonice.com,1 Star,1.0,0,7.28284,43.69872
Alpage,"Annapurna, 734 route de l'Altiport, Courchevel 1850","Courchevel, 73120",Albertville,73,Savoie,Chambéry,Auvergne-Rhône-Alpes,€€€€,Modern Cuisine,https://www.annapurna-courchevel.com/fr/restaurant-alpage.html,1 Star,1.0,0,6.6369297,45.4012235
Nhome,41 rue de Montpensier,"Paris, 75001",1st (Louvre),75,Paris,Paris,Île-de-France,€€€€,Creative,https://www.nhomeparis.com/,1 Star,1.0,0,2.3374459,48.8661738
Pierre,7-9 rue Joseph Dufour,"Mâcon, 71000",Mâcon,71,Saône-et-Loire,Mâcon,Bourgogne-Franche-Comté,€€€,Classic Cuisine,http://www.restaurant-pierre.com,1 Star,1.0,0,4.8314285,46.3034378
L'O des Vignes,129 rue du Bourg,"Fuissé, 71960",Mâcon,71,Saône-et-Loire,Mâcon,Bourgogne-Franche-Comté,€€€,Modern Cuisine,https://lodesvignes.fr/fr/,1 Star,1.0,0,4.74395,46.2802
Saisons,1A chemin de Calabert,"Écully, 69130",Lyon,69,Rhône,Lyon,Auvergne-Rhône-Alpes,€€€€,Modern Cuisine,https://www.saisons-restaurant.fr/,1 Star,1.0,0,4.76787,45.77744
Le Lièvre Gourmand,28 quai du Châtelet,"Orléans, 45000",Orléans,45,Loiret,Orléans,Centre-Val de Loire,€€€,Creative,http://www.lelievregourmand.fr,1 Star,1.0,0,1.9104472,47.8980213
L'Atelier des Augustins,17 rue Hippolyte-Flandrin,"Lyon, 69001",Lyon,69,Rhône,Lyon,Auvergne-Rhône-Alpes,€€€€,Modern Cuisine,https://latelierdesaugustins.com/fr/,1 Star,1.0,0,4.8308367,45.7677374
Prairial,1 place Hubert-Mounier,"Lyon, 69002",Lyon,69,Rhône,Lyon,Auvergne-Rhône-Alpes,€€€€,Creative,https://www.prairial-restaurant.fr,1 Star,1.0,1,4.8229022,45.7415161
Hélène Darroze à Villa La Coste,2750 route de la Cride,"Le Puy-Sainte-Réparade, 13610",Aix-en-Provence,13,Bouches-du-Rhône,Marseille,Provence-Alpes-Côte d'Azur,€€€€,Modern Cuisine,https://www.villalacoste.com/,1 Star,1.0,0,5.4139364,43.6329148
Frédéric Doucet,2 avenue de la Libération,"Charolles, 71120",Charolles,71,Saône-et-Loire,Mâcon,Bourgogne-Franche-Comté,€€€€,Modern Cuisine,http://www.maison-doucet.com,1 Star,1.0,0,4.2751453,46.4334903
Château Blanchard,36 route de Saint-Galmier,"Chazelles-sur-Lyon, 42140",Montbrison,42,Loire,Saint-Étienne,Auvergne-Rhône-Alpes,€€€€,Modern Cuisine,https://www.hotel-chateau-blanchard.com/,1 Star,1.0,0,4.3858639,45.6362194
Jardin des Sens,Place de la Canourgue,"Montpellier, 34000",Montpellier,34,Hérault,Montpellier,Occitanie,€€€€,Modern Cuisine,https://www.hotel-richerdebelleval.com/jardin-des-sens/,1 Star,1.0,0,3.8747685,43.6117844
Restaurant Girardin,19 rue des Têtes,"Colmar, 68000",Colmar-Ribeauvillé,68,Haut-Rhin,Colmar,Grand Est,€€€€,Creative,https://www.maisondestetes.com/fr/restaurant-girardin.html,1 Star,1.0,0,7.3554964,48.0785765
L'Atelier du Peintre,1 rue Schongauer,"Colmar, 68000",Colmar-Ribeauvillé,68,Haut-Rhin,Colmar,Grand Est,€€€,Modern Cuisine,https://www.atelier-peintre.fr/,1 Star,1.0,0,7.3580855,48.0765208
Le Carré d'Alethius,4 rue Paul-Bertois,"Charmes-sur-Rhône, 07800",Tournon-sur-Rhône,07,Ardèche,Privas,Auvergne-Rhône-Alpes,€€€,Modern Cuisine,https://www.lecarredalethius.com,1 Star,1.0,0,4.8331975,44.8614644
Apicius,Place du Marché-Saint-Pierre (à l'étage),"Clermont-Ferrand, 63000",Clermont-Ferrand,63,Puy-de-Dôme,Clermont-Ferrand,Auvergne-Rhône-Alpes,€€€€,Modern Cuisine,https://www.apicius-clermont.com/,1 Star,1.0,0,3.0827699,45.7793794
La Chabotterie,Logis de La Chabotterie,"Montréverd, 85260",La Roche-sur-Yon,85,Vendée,La Roche-sur-Yon,Pays de la Loire,€€€,Modern Cuisine,https://lachabotterie.com,1 Star,1.0,0,-1.4064951,46.879939
Le Carmin,4B place Carnot,"Beaune, 21200",Beaune,21,Côte-d'Or,Dijon,Bourgogne-Franche-Comté,€€€€,Modern Cuisine,https://www.restaurant-lecarmin.com/,1 Star,1.0,0,4.8377091,47.0225391
Vieux Pont,Le Bourg,"Belcastel, 12390",Villefranche-de-Rouergue,12,Aveyron,Rodez,Occitanie,€€€€,Modern Cuisine,https://www.hotelbelcastel.com,1 Star,1.0,0,2.33588,44.3881
Le Pot d'Étain,4 avenue de la République,"Danjoutin, 90400",Belfort,90,Territoire de Belfort,Belfort,Bourgogne-Franche-Comté,€€€,Modern Cuisine,https://www.restaurant-potdetain.fr/,1 Star,1.0,0,6.8592762,47.6160064
L'Alter-Native,12 rue Boieldieu,"Béziers, 34500",Béziers,34,Hérault,Montpellier,Occitanie,€€€€,"Modern Cuisine, Seafood",https://www.lalternativegoujon.fr,1 Star,1.0,0,3.21756,43.3426371
Le Gavrinis,1 rue de l'Île-Gavrinis,"Baden, 56870",Vannes,56,Morbihan,Vannes,Bretagne,€€€,Modern Cuisine,https://www.gavrinis.fr/,1 Star,1.0,0,-2.8981722,47.6232111
Le Restaurant des Rois - La Réserve de Beaulieu,5 boulevard du Maréchal-Leclerc,"Beaulieu-sur-Mer, 06310",Nice,06,Alpes-Maritimes,Nice,Provence-Alpes-Côte d'Azur,€€€€,Modern Cuisine,https://www.reservebeaulieu.com,1 Star,1.0,0,7.33508,43.7059731
Auberge du XIIème Siècle,1 rue du Château,"Saché, 37190",Tours,37,Indre-et-Loire,Tours,Centre-Val de Loire,€€€,Modern Cuisine,https://www.auberge12emesiecle.fr,1 Star,1.0,0,0.5436827,47.2464071
Auberge Pom'Poire,21 route de Vallères,"Azay-le-Rideau, 37190",Tours,37,Indre-et-Loire,Tours,Centre-Val de Loire,€€€,Modern Cuisine,http://www.aubergepompoire.fr,1 Star,1.0,0,0.4450558,47.2830529
Quai des Saveurs,69 rue de la Gare,"Hagondange, 57300",Metz,57,Moselle,Metz,Grand Est,€€€,Modern Cuisine,https://www.quaidessaveurs.com/,1 Star,1.0,0,6.1646539,49.2534752
La Vieille Auberge,11 rue du Général-de-Gaulle,"Villeneuve-le-Comte, 77174",Provins,77,Seine-et-Marne,Melun,Île-de-France,€€€,Modern Cuisine,https://www.la-vieille-auberge-77.com/,1 Star,1.0,0,2.8295952,48.8130658
En Marge,"Lieu dit Le Birol, 1204 route de Lacroix-Falgarde, ","Aureville, 31320",Toulouse,31,Haute-Garonne,Toulouse,Occitanie,€€€€,Modern Cuisine,https://www.restaurantenmarge.com,1 Star,1.0,0,1.44087,43.49083
Finestra by Italo Bassi,51 quai Jérôme-Comparetti,"Bonifacio, 20169",Sartène,2A,Corse-du-Sud,Ajaccio,Corse,€€€€,"Italian, Mediterranean Cuisine",https://finestra-d-amore.fr/,1 Star,1.0,0,9.1637107,41.3879548
Cueillette,3 La Raufie,"Altillac, 19120",Brive-la-Gaillarde,19,Corrèze,Tulle,Nouvelle-Aquitaine,€€€,Modern Cuisine,https://restaurant-cueillette.fr/,1 Star,1.0,0,1.8560131,44.9474128
Hostellerie la Montagne,10 rue Pisseloup,"Colombey-les-Deux-Églises, 52330",Chaumont,52,Haute-Marne,Chaumont,Grand Est,€€€€,Modern Cuisine,http://www.hostellerielamontagne.com,1 Star,1.0,0,4.8874741,48.2225256
Lait Thym Sel,17 rue Boisnet,"Angers, 49100",Angers,49,Maine-et-Loire,Angers,Pays de la Loire,€€€€,Creative,https://laitthymsel.com/,1 Star,1.0,1,-0.5512482,47.4745869
The Marcel,5 rue Lazare-Carnot,"Sète, 34200",Montpellier,34,Hérault,Montpellier,Occitanie,€€€€,Mediterranean Cuisine,https://the-marcel.fr,1 Star,1.0,0,3.6981431,43.4026375
La Licorne Royale,27 place Isaac-Benserade,"Lyons-la-Forêt, 27480",Les Andelys,27,Eure,Évreux,Normandie,€€€€,Modern Cuisine,https://www.hotel-licorne.com/,1 Star,1.0,0,1.4766068,49.3985891
L'Auberge de Bagatelle,489 avenue Bollée,"Le Mans, 72000",Le Mans,72,Sarthe,Le Mans,Pays de la Loire,€€€,Modern Cuisine,https://www.aubergedebagatelle.fr/,1 Star,1.0,0,0.2359126,47.9990983
Au 14 Février,36 rue du Bœuf,"Lyon, 69005",Lyon,69,Rhône,Lyon,Auvergne-Rhône-Alpes,€€€€,Creative,https://www.ly-au14fevrier.com/,1 Star,1.0,0,4.8263815,45.7622206
Têtedoie,4 rue Professeur-Pierre-Marion,"Lyon, 69005",Lyon,69,Rhône,Lyon,Auvergne-Rhône-Alpes,€€€€,Modern Cuisine,https://tetedoie.com/,1 Star,1.0,1,4.8233917,45.7590732
Le 1862 - Les Glycines,4 avenue de Laugerie,"Les Eyzies-de-Tayac-Sireuil, 24620",Sarlat-la-Canéda,24,Dordogne,Périgueux,Nouvelle-Aquitaine,€€€€,Modern Cuisine,https://www.les-glycines-dordogne.com/fr/hotel-les-eyzies,1 Star,1.0,0,1.0074802,44.9407834
La Balette,Route de Port-Vendres,"Collioure, 66190",Céret,66,Pyrénées-Orientales,Perpignan,Occitanie,€€€€,"Creative, Modern Cuisine",https://www.relaisdestroismas.com,1 Star,1.0,0,3.0890189,42.5244835
Alain Llorca,350 route de Saint-Paul,"La Colle-sur-Loup, 06480",Grasse,06,Alpes-Maritimes,Nice,Provence-Alpes-Côte d'Azur,€€€€,Provençal,https://www.alainllorca.com/,1 Star,1.0,0,7.1089745,43.6952832
La Bonne Étape,Chemin du Lac,"Château-Arnoux-Saint-Auban, 04160",Digne-les-Bains,04,Alpes-de-Haute-Provence,Digne-les-Bains,Provence-Alpes-Côte d'Azur,€€€€,Provençal,https://www.bonneetape.com/,1 Star,1.0,0,6.0123896,44.0930379
G.a. au Manoir de Rétival,2 rue Saint-Clair,"Rives-en-Seine, 76490",Rouen,76,Seine-Maritime,Rouen,Normandie,€€€€,"Modern Cuisine, Creative",http://www.restaurant-ga.fr,1 Star,1.0,1,0.7348884,49.5249389
L'Aupiho - Domaine de Manville,Route de la Terre-des-Baux,"Les Baux-de-Provence, 13520",Arles,13,Bouches-du-Rhône,Marseille,Provence-Alpes-Côte d'Azur,€€€€,Modern Cuisine,https://www.domainedemanville.fr/,1 Star,1.0,0,4.8014926,43.7324195
Ed.Em,4 impasse Chenevottes,"Chassagne-Montrachet, 21190",Beaune,21,Côte-d'Or,Dijon,Bourgogne-Franche-Comté,€€€,Modern Cuisine,http://www.restaurant-edem.com/fr,1 Star,1.0,0,4.7307841,46.9384854
La Table de la Bergerie,3 route de la Pierre,"Bellevigne-en-Layon, 49380",Angers,49,Maine-et-Loire,Angers,Pays de la Loire,€€€,"Modern Cuisine, Farm to table",http://www.latable-bergerie.fr,1 Star,1.0,0,-0.59238,47.26803
La Table de l'Orangerie - Château de Fonscolombe,Route de Saint-Canadet,"Le Puy-Sainte-Réparade, 13610",Aix-en-Provence,13,Bouches-du-Rhône,Marseille,Provence-Alpes-Côte d'Azur,€€€€,Modern Cuisine,https://www.fonscolombe.fr/,1 Star,1.0,0,5.4683418,43.6395369
Granit - La Mécanique des Frères Bonano,Lieu-dit La Mécanique,"Colombières-sur-Orb, 34390",Béziers,34,Hérault,Montpellier,Occitanie,€€€€,Modern Cuisine,https://www.lamecaniquedesfreresbonano.fr/,1 Star,1.0,0,3.0232386,43.5783695
Hostellerie de la Pointe Saint-Mathieu,7 place Saint-Tanguy,"Plougonvelin, 29217",Brest,29,Finistère,Quimper,Bretagne,€€€€,Modern Cuisine,http://www.pointe-saint-mathieu.com,1 Star,1.0,0,-4.77086,48.3309068
La Table de Nans,126 corniche du Liouquet,"La Ciotat, 13600",Marseille,13,Bouches-du-Rhône,Marseille,Provence-Alpes-Côte d'Azur,€€€€,Mediterranean Cuisine,https://www.latabledenans.com/,1 Star,1.0,0,5.6666678,43.1828371
La Grange de Belle-Église,28 boulevard René-Aimé-Lagabrielle,"Belle-Église, 60540",Senlis,60,Oise,Beauvais,Hauts-de-France,€€€,Classic Cuisine,https://www.lagrangedebelleeglise.fr/,1 Star,1.0,0,2.2145117,49.1922098
La Magdeleine - Mathias Dandine,2 rond-point des Charrons,"Gémenos, 13420",Marseille,13,Bouches-du-Rhône,Marseille,Provence-Alpes-Côte d'Azur,€€€€,Mediterranean Cuisine,http://www.relais-magdeleine.com,1 Star,1.0,0,5.6248585,43.2989399
Le Valucien - Château de Vault-de-Lugny,11 rue du Château,"Vault-de-Lugny, 89200",Avallon,89,Yonne,Auxerre,Bourgogne-Franche-Comté,€€€€,Modern Cuisine,http://lugny.fr,1 Star,1.0,0,3.8548891,47.4956359
La Tour des Vents,450 route de Malfourat,"Monbazillac, 24240",Bergerac,24,Dordogne,Périgueux,Nouvelle-Aquitaine,€€€,Modern Cuisine,https://www.domainedelatourdesvents.com/,1 Star,1.0,0,0.461633,44.796818
Le Patio,10 boulevard de la Plage,"Arcachon, 33120",Arcachon,33,Gironde,Bordeaux,Nouvelle-Aquitaine,€€€,Modern Cuisine,https://www.lepatio-thierryrenou.com/,1 Star,1.0,0,-1.1480683,44.6568136
Table de Levernois,"Hostellerie de Levernois, 15 rue du Golf","Levernois, 21200",Beaune,21,Côte-d'Or,Dijon,Bourgogne-Franche-Comté,€€€€,Modern Cuisine,https://www.levernois.com/fr/,1 Star,1.0,0,4.8776071,46.9927294
Hémicycle,5 rue de Bourgogne,"Paris, 75007",7th (Palais-Bourbon),75,Paris,Paris,Île-de-France,€€€€,Modern Cuisine,http://www.hemicycle.paris,1 Star,1.0,0,2.3182962,48.8600034
Asterales,"Hôtel du Golf, Les Ritons, 784 route du Clos-de-la-Balme","Corrençon-en-Vercors, 38250",Grenoble,38,Isère,Grenoble,Auvergne-Rhône-Alpes,€€€,Modern Cuisine,https://www.hotel-du-golf-vercors.fr/lhotel-2-2-2/,1 Star,1.0,0,5.52001,45.02677
Le Saint Hilaire,5 rue André-Schenk,"Saint-Hilaire-de-Brethmas, 30560",Alès,30,Gard,Nîmes,Occitanie,€€€,Modern Cuisine,http://www.lesainthilairebysebastienrath.com,1 Star,1.0,1,4.1055495,44.0991009
Les Funambules,17 rue Geiler,"Strasbourg, 67000",Strasbourg,67,Bas-Rhin,Strasbourg,Grand Est,€€€,Modern Cuisine,https://www.restaurantlesfunambules.com/,1 Star,1.0,0,7.7678043,48.5869813
Nacre,3 bis rue Sophie-et-Paul-Wallerstein,"Arès, 33740",Arcachon,33,Gironde,Bordeaux,Nouvelle-Aquitaine,€€€,Modern Cuisine,https://www.restaurant-nacre.com/,1 Star,1.0,0,-1.1401852,44.7662756
de:ja,1 rue Schimper,"Strasbourg, 67000",Strasbourg,67,Bas-Rhin,Strasbourg,Grand Est,€€€€,Creative,http://www.deja-restaurant.com,1 Star,1.0,1,7.7685673,48.5873652
Intuition,1 rue Alsace-Lorraine,"Saint-Lô, 50000",Saint-Lô,50,Manche,Saint-Lô,Normandie,€€€,Modern Cuisine,http://www.restaurant-intuition.fr,1 Star,1.0,0,-1.0985834,49.1144055
Faventia,3100 route de Bagnols-en-Forêt,"Tourrettes, 83440",Draguignan,83,Var,Toulon,Provence-Alpes-Côte d'Azur,€€€€,Modern Cuisine,http://www.terre-blanche.com,1 Star,1.0,0,6.7319345,43.590664
L'Opidom,4 quai de la Guignière,"Fondettes, 37230",Tours,37,Indre-et-Loire,Tours,Centre-Val de Loire,€€€,"Creative, Modern Cuisine",https://www.lopidom.fr/,1 Star,1.0,0,0.6446365,47.3925849
La Source,8 allée de La Charpinière,"Saint-Galmier, 42330",Montbrison,42,Loire,Saint-Étienne,Auvergne-Rhône-Alpes,€€€,Modern Cuisine,https://www.lacharpiniere.com/fr/,1 Star,1.0,0,4.3105689,45.588937
L'Aspérule,43 rue Jean-Jacques-Rousseau,"Dijon, 21000",Dijon,21,Côte-d'Or,Dijon,Bourgogne-Franche-Comté,€€€,Modern Cuisine,https://www.restaurant-asperule.fr/,1 Star,1.0,0,5.044981,47.3248221
Colette,"Hôtel Sezz, 151  route des Salins","Saint-Tropez, 83990",Draguignan,83,Var,Toulon,Provence-Alpes-Côte d'Azur,€€€€,Modern Cuisine,https://www.colettesainttropez.com/,1 Star,1.0,0,6.6697135,43.2637243
MoSuke,11 rue Raymond-Losserand,"Paris, 75014",14th (Observatoire),75,Paris,Paris,Île-de-France,€€€€,Modern Cuisine,http://www.mosuke-restaurant.com,1 Star,1.0,0,2.3225579,48.8364014
Ursus,"Maison Bouvier - Les Suites, 39 rue du Val-Claret, au Val-Claret","Tignes, 73320",Albertville,73,Savoie,Chambéry,Auvergne-Rhône-Alpes,€€€€,Creative,https://www.les-suites-du-nevada.com/restaurant-ursus/,1 Star,1.0,1,6.9011983,45.4579161
L'Or Bleu,6 boulevard de l'Esquillon,"Théoule-sur-Mer, 06590",Grasse,06,Alpes-Maritimes,Nice,Provence-Alpes-Côte d'Azur,€€€€,"Modern Cuisine, Mediterranean Cuisine",https://yaktsa.tiara-hotels.com/,1 Star,1.0,0,6.9453085,43.4853664
Burgundy by Matthieu,24 quai Saint-Antoine,"Lyon, 69002",Lyon,69,Rhône,Lyon,Auvergne-Rhône-Alpes,€€€,Modern Cuisine,https://www.burgundybym.fr/,1 Star,1.0,0,4.8321372,45.7628677
Le Cerf,30 rue du Général-de-Gaulle,"Marlenheim, 67520",Molsheim,67,Bas-Rhin,Strasbourg,Grand Est,€€€,Modern Cuisine,https://www.lecerf.com/,1 Star,1.0,0,7.4935434,48.6210097
Le Charlemagne,1 route des Vergelesses,"Pernand-Vergelesses, 21420",Beaune,21,Côte-d'Or,Dijon,Bourgogne-Franche-Comté,€€€€,Creative,https://www.lecharlemagne.fr/,1 Star,1.0,0,4.8497698,47.0772707
La Mirande,4 place de l'Amirande,"Avignon, 84000",Avignon,84,Vaucluse,Avignon,Provence-Alpes-Côte d'Azur,€€€€,Modern Cuisine,https://www.la-mirande.fr,1 Star,1.0,1,4.8076612,43.9501365
L'Orangerie,Place de l'Impératrice,"Eugénie-les-Bains, 40320",Mont-de-Marsan,40,Landes,Mont-de-Marsan,Nouvelle-Aquitaine,€€€€,Classic Cuisine,https://lespresdeugenie.com/les-tables/lorangerie/,1 Star,1.0,0,-0.3801786,43.6960081
Palégrié Chez l'Henri,66 rue de la Tour,"Autrans-Méaudre en Vercors, 38112",Grenoble,38,Isère,Grenoble,Auvergne-Rhône-Alpes,€€€,"Creative, Modern Cuisine",https://palegrie.fr/,1 Star,1.0,1,5.5281747,45.1266848
Émilie & Thomas - Moulin de Cambelong,61 lieu-dit Cambelong,"Conques-en-Rouergue, 12320",Rodez,12,Aveyron,Rodez,Occitanie,€€€,Modern Cuisine,http://www.moulindecambelong.com,1 Star,1.0,0,2.3952417,44.5937114
Restaurant Hervé Busset,24 place du Bourg,"Rodez, 12000",Rodez,12,Aveyron,Rodez,Occitanie,€€€,Modern Cuisine,https://restaurant-herve-busset.fr,1 Star,1.0,0,2.5758132,44.3484736
La Bòria,105 avenue du Ruissol,"Veyras, 07000",Privas,07,Ardèche,Privas,Auvergne-Rhône-Alpes,€€€,Creative,http://www.la-boria.com,1 Star,1.0,1,4.5651805,44.7292683
Rouge,"Margaret - Hôtel Chouleur, 6 rue Fresque","Nîmes, 30000",Nîmes,30,Gard,Nîmes,Occitanie,€€€€,Creative,http://www.margaret-hotelchouleur.com,1 Star,1.0,0,4.35788,43.83717
Le Royal,"Hameau de Bellevue, 9 rue de la République","Champillon, 51160",Épernay,51,Marne,Châlons-en-Champagne,Grand Est,€€€€,Creative,https://royalchampagne.com/fr/le-royal.html,1 Star,1.0,0,3.9770727,49.0907189
Aux Terrasses,18 avenue du 23-Janvier,"Tournus, 71700",Mâcon,71,Saône-et-Loire,Mâcon,Bourgogne-Franche-Comté,€€€,Modern Cuisine,https://www.aux-terrasses.com/fr/,1 Star,1.0,1,4.9143701,46.5590372
Le Refuge des Gourmets,90 route des Framboises,"Machilly, 74140",Saint-Julien-en-Genevois,74,Haute-Savoie,Annecy,Auvergne-Rhône-Alpes,€€€,Modern Cuisine,https://www.refugedesgourmets.com/,1 Star,1.0,0,6.3282703,46.2482745
Origines Restaurant,6 rue de Ponthieu,"Paris, 75008",8th (Élysée),75,Paris,Paris,Île-de-France,€€€€,Modern Cuisine,https://www.origines-restaurant.com/,1 Star,1.0,0,2.3111842,48.8702343
Le Georges,22 place des Épars,"Chartres, 28000",Chartres,28,Eure-et-Loir,Chartres,Centre-Val de Loire,€€€€,Modern Cuisine,https://www.grand-monarque.com,1 Star,1.0,0,1.4831927,48.444414
Ambroisie,64 route du Lac,"Saint-Didier-de-la-Tour, 38110",La Tour-du-Pin,38,Isère,Grenoble,Auvergne-Rhône-Alpes,€€€€,Modern Cuisine,https://www.restaurant-ambroisie.fr/,1 Star,1.0,0,5.4875038,45.560381
Virtus,29 rue de Cotte,"Paris, 75012",12th (Reuilly),75,Paris,Paris,Île-de-France,€€€€,Modern Cuisine,https://www.virtus-paris.com,1 Star,1.0,0,2.3780547,48.8501479
Le Sergent Recruteur,41 rue Saint-Louis-en-l'Île,"Paris, 75004",4th (Hôtel-de-Ville),75,Paris,Paris,Île-de-France,€€€€,Modern Cuisine,https://www.lesergentrecruteur.fr/,1 Star,1.0,0,2.3560682,48.8519498
Accents Table Bourse,24 rue Feydeau,"Paris, 75002",2nd (Bourse),75,Paris,Paris,Île-de-France,€€€€,Modern Cuisine,https://accents-restaurant.com,1 Star,1.0,0,2.3404253,48.8699134
Michel Sarran,21 boulevard Armand-Duportal,"Toulouse, 31000",Toulouse,31,Haute-Garonne,Toulouse,Occitanie,€€€€,Creative,https://www.michel-sarran.com/fr/,1 Star,1.0,0,1.4345204,43.6072744
Le Jardin Secret,32 rue de la Gare,"La Wantzenau, 67610",Strasbourg,67,Bas-Rhin,Strasbourg,Grand Est,€€€,Modern Cuisine,http://www.restaurant-jardinsecret.fr,1 Star,1.0,0,7.8252062,48.6648455
Umami,8 rue des Dentelles,"Strasbourg, 67000",Strasbourg,67,Bas-Rhin,Strasbourg,Grand Est,€€€,Modern Cuisine,https://www.restaurant-umami.com/,1 Star,1.0,0,7.7430965,48.580961
Le K,"Domaine de la Klauss, 2 impasse du Klaussberg","Montenach, 57480",Thionville,57,Moselle,Metz,Grand Est,€€€€,Modern Cuisine,https://www.domainedelaklauss.com/,1 Star,1.0,0,6.3758497,49.4192618
Trente-Trois,"Maison Villeroy, 33 rue Jean-Goujon","Paris, 75008",8th (Élysée),75,Paris,Paris,Île-de-France,€€€€,Modern Cuisine,https://www.restaurant-trente-trois.com/,1 Star,1.0,0,2.304464,48.8652115
Les Sources de Fontbelle,1 bis rue des Meules-à-Grains,"Angoulême, 16000",Angoulême,16,Charente,Angoulême,Nouvelle-Aquitaine,€€€€,Creative,http://www.sourcesdefontbelle.com,1 Star,1.0,0,0.14218,45.6288809
Pur' - Jean-François Rouquette,"Park Hyatt Paris-Vendôme, 5 rue de la Paix","Paris, 75002",2nd (Bourse),75,Paris,Paris,Île-de-France,€€€€,Modern Cuisine,https://www.paris-restaurant-pur.fr,1 Star,1.0,0,2.3303786,48.868617
Galanga,"Hôtel Monsieur George, 17 rue Washington","Paris, 75008",8th (Élysée),75,Paris,Paris,Île-de-France,€€€€,Modern Cuisine,https://www.monsieurgeorge.com/Restaurant-Gastronomique-Galanga-par-Monsieur-George-Champs-Elysees,1 Star,1.0,0,2.3025531,48.8729358
Miraflores,112 boulevard des Belges,"Lyon, 69006",Lyon,69,Rhône,Lyon,Auvergne-Rhône-Alpes,€€€€,Peruvian,https://www.restaurant-miraflores.com/,1 Star,1.0,0,4.8585914,45.7683063
Solstice,45 rue Claude-Bernard,"Paris, 75005",5th (Panthéon),75,Paris,Paris,Île-de-France,€€€€,Modern Cuisine,http://www.solsticeparis.com,1 Star,1.0,0,2.3458979,48.8402902
L'Arbre au Soleil,Nouveau Port,"Le Lavandou, 83980",Toulon,83,Var,Toulon,Provence-Alpes-Côte d'Azur,€€€,Modern Cuisine,http://www.larbreausoleil.com,1 Star,1.0,0,6.37491,43.1372393
Restaurant De Lauzun,Route de Nizas,"Pézenas, 34120",Béziers,34,Hérault,Montpellier,Occitanie,€€€€,Modern Cuisine,http://www.restaurant-delauzun.com,1 Star,1.0,0,3.4116289,43.4827871
Rosmadec Le Moulin,Venelle de Rosmadec,"Pont-Aven, 29930",Quimper,29,Finistère,Quimper,Bretagne,€€€€,Modern Cuisine,http://www.rosmadec.com,1 Star,1.0,0,-3.7479266,47.854745
Les Agitateurs,24 rue Bonaparte,"Nice, 06300",Nice,06,Alpes-Maritimes,Nice,Provence-Alpes-Côte d'Azur,€€€€,Creative,https://www.lesagitateurs.com/,1 Star,1.0,0,7.2843229,43.7005783
Couleurs de Shimatani,35 rue Edgar-Quinet,"La Ciotat, 13600",Marseille,13,Bouches-du-Rhône,Marseille,Provence-Alpes-Côte d'Azur,€€€€,Fusion,http://www.shimatani.fr,1 Star,1.0,0,5.6101244,43.1751771
Contraste,18 rue d'Anjou,"Paris, 75008",8th (Élysée),75,Paris,Paris,Île-de-France,€€€€,Modern Cuisine,https://www.contraste.paris/,1 Star,1.0,0,2.3213463,48.8705248
L'Écrin de Yohann Chapuis,1 rue Albert-Thibaudet,"Tournus, 71700",Mâcon,71,Saône-et-Loire,Mâcon,Bourgogne-Franche-Comté,€€€€,"Creative, Modern Cuisine",https://www.restaurant-greuze.fr/fr/,1 Star,1.0,0,4.9078059,46.5656876
Sola,12 rue de l'Hôtel-Colbert,"Paris, 75005",5th (Panthéon),75,Paris,Paris,Île-de-France,€€€€,"Creative, Japanese",https://www.restaurant-sola.com/,1 Star,1.0,0,2.3483585,48.8515799
SEPT,11 rue Théodore-Ozenne,"Toulouse, 31000",Toulouse,31,Haute-Garonne,Toulouse,Occitanie,€€€€,Modern Cuisine,http://www.restaurant-sept.fr,1 Star,1.0,0,1.4467407,43.5967943
Auberge de la Grive,5 rue du Logis,"Trosly-Loire, 02300",Laon,02,Aisne,Laon,Hauts-de-France,€€€,Modern Cuisine,https://aubergedelagrive.com/fr/,1 Star,1.0,0,3.2253823,49.5167484
Origines,Rue du Clos-de-la-Chaux,"Le Broc, 63500",Issoire,63,Puy-de-Dôme,Clermont-Ferrand,Auvergne-Rhône-Alpes,€€€€,"Creative, Modern Cuisine",https://restaurant-origines.fr/fr/,1 Star,1.0,0,3.2436174,45.5014095
La Sommelière,6 rue Mourguet,"Lyon, 69005",Lyon,69,Rhône,Lyon,Auvergne-Rhône-Alpes,€€€,Modern Cuisine,https://www.la-sommeliere.net/,1 Star,1.0,0,4.8261445,45.759793
Épisodes,8 rue Meissonier,"Paris, 75017",17th (Batignolles-Monceau),75,Paris,Paris,Île-de-France,€€€€,Creative,https://www.episodes-paris.fr,1 Star,1.0,0,2.3044589,48.8835815
1741,22 quai des Bateliers,"Strasbourg, 67000",Strasbourg,67,Bas-Rhin,Strasbourg,Grand Est,€€€€,Modern Cuisine,https://www.1741.fr/fr/Restaurant/,1 Star,1.0,0,7.7535355,48.5805005
L'Aparté,21 rue de l'Europe,"Montrabé, 31850",Toulouse,31,Haute-Garonne,Toulouse,Occitanie,€€€,Modern Cuisine,https://www.restaurant-laparte.fr,1 Star,1.0,0,1.5107135,43.6449305
Ducasse au Château de Versailles - Le Grand Contrôle,12 rue de l'Indépendance-Américaine,"Versailles, 78000",Versailles,78,Yvelines,Versailles,Île-de-France,€€€€,"Classic Cuisine, French",https://airelles.com/fr/destination/chateau-de-versailles-hotel,1 Star,1.0,0,2.120209,48.801401
Haut Bonheur de la Table,18 Grand'Place,"Cassel, 59670",Dunkerque,59,Nord,Lille,Hauts-de-France,€€,Modern Cuisine,https://www.hautbonheurdelatable.com/,1 Star,1.0,0,2.4857285,50.7999474
Granite,6 rue Bailleul,"Paris, 75001",1st (Louvre),75,Paris,Paris,Île-de-France,€€€€,Modern Cuisine,http://www.granite.paris,1 Star,1.0,0,2.3419097,48.8610315
Ébullition,10 rue du Pila-Saint-Gély,"Montpellier, 34000",Montpellier,34,Hérault,Montpellier,Occitanie,€€€,Creative,https://restaurant-ebullition.eu/,1 Star,1.0,0,3.8797575,43.6132891
Le Tout-Paris,"Cheval Blanc Paris, 8 quai du Louvre","Paris, 75001",1st (Louvre),75,Paris,Paris,Île-de-France,€€€€,Modern Cuisine,https://www.letoutparis.fr,1 Star,1.0,0,2.342155,48.8588392
Pureté,79 rue de la Monnaie,"Lille, 59000",Lille,59,Nord,Lille,Hauts-de-France,€€€,"Modern Cuisine, Creative",http://www.restaurant-purete.com,1 Star,1.0,0,3.0618585,50.6415472
En Pleine Nature,6 place de la Mairie,"Quint-Fonsegrives, 31130",Toulouse,31,Haute-Garonne,Toulouse,Occitanie,€€€,"Modern Cuisine, Creative",http://www.en-pleine-nature.com,1 Star,1.0,1,1.5294347,43.585293
Auberge Saint-Laurent,1 rue de la Fontaine,"Sierentz, 68510",Mulhouse,68,Haut-Rhin,Colmar,Grand Est,€€€€,"Modern Cuisine, Traditional Cuisine",https://www.auberge-saintlaurent.fr/,1 Star,1.0,0,7.4539991,47.6540637
Au Crocodile,10 rue de l'Outre,"Strasbourg, 67000",Strasbourg,67,Bas-Rhin,Strasbourg,Grand Est,€€€€,Modern Cuisine,https://www.au-crocodile.com/fr/Restaurant/,1 Star,1.0,0,7.747566,48.58372
Auberge au Bœuf,1 rue de l'Église,"Sessenheim, 67770",Haguenau-Wissembourg,67,Bas-Rhin,Strasbourg,Grand Est,€€€€,Modern Cuisine,https://www.auberge-au-boeuf.fr/,1 Star,1.0,0,7.9857074,48.7991675
Maison Hache,30 rue de la République,"Eygalières, 13810",Arles,13,Bouches-du-Rhône,Marseille,Provence-Alpes-Côte d'Azur,€€€€,Provençal,https://www.maisonhache.com/,1 Star,1.0,0,4.9499672,43.7609722
Anona,80 boulevard des Batignolles,"Paris, 75017",17th (Batignolles-Monceau),75,Paris,Paris,Île-de-France,€€€€,Modern Cuisine,https://www.anona.fr/,1 Star,1.0,1,2.3186535,48.881942
Auberge de la Tour,Place de la Fontaine,"Marcolès, 15220",Aurillac,15,Cantal,Aurillac,Auvergne-Rhône-Alpes,€€€€,Modern Cuisine,https://www.aubergedela-tour.com/,1 Star,1.0,0,2.3518849,44.7814806
"Une Table, au Sud",2 quai du Port,"Marseille, 13002",Marseille,13,Bouches-du-Rhône,Marseille,Provence-Alpes-Côte d'Azur,€€€€,Modern Cuisine,https://www.unetableausud.com/,1 Star,1.0,0,5.3735291,43.2962224
Choko Ona,155 rue Xerrendako-Bidea,"Espelette, 64250",Bayonne,64,Pyrénées-Atlantiques,Pau,Nouvelle-Aquitaine,€€€,"Modern Cuisine, Creative",https://choko-ona.fr/,1 Star,1.0,1,-1.4447745,43.3416
Rustique,14 rue d'Enghien,"Lyon, 69002",Lyon,69,Rhône,Lyon,Auvergne-Rhône-Alpes,€€€€,Creative,https://www.rustiquelyon.fr,1 Star,1.0,0,4.8262529,45.7520806
Omija,54 rue Fouré,"Nantes, 44000",Nantes,44,Loire-Atlantique,Nantes,Pays de la Loire,€€€,Creative,https://www.omija.fr/,1 Star,1.0,0,-1.5472623,47.210365
Shabour,19 rue Saint-Sauveur,"Paris, 75002",2nd (Bourse),75,Paris,Paris,Île-de-France,€€€€,Creative,http://www.restaurantshabour.com,1 Star,1.0,0,2.3490797,48.8659204
La Table de L'Incomparable,68 chemin de Belledonne,"Tresserve, 73100",Chambéry,73,Savoie,Chambéry,Auvergne-Rhône-Alpes,€€€€,Modern Cuisine,http://www.hotel-lincomparable.com/fr,1 Star,1.0,0,5.8996741,45.6705497
Fleur de Pavé,5 rue Paul-Lelong,"Paris, 75002",2nd (Bourse),75,Paris,Paris,Île-de-France,€€€,"Creative, Modern Cuisine",https://www.fleurdepave.com/,1 Star,1.0,0,2.34333,48.8677
La Table d'Asten,8 boulevard Clemenceau,"Binic, 22520",Saint-Brieuc,22,Côtes-d'Armor,Saint-Brieuc,Bretagne,€€€,Modern Cuisine,http://www.asten-restaurant.fr,1 Star,1.0,0,-2.8249426,48.5992778
L'Abissiou,81 rue des Halles,"Les Sables-d'Olonne, 85100",Les Sables-d'Olonne,85,Vendée,La Roche-sur-Yon,Pays de la Loire,€€€€,Modern Cuisine,https://www.labissiou.fr,1 Star,1.0,0,-1.7873309,46.4955501
Aumì,6 chemin des Rochers,"Puymoyen, 16400",Angoulême,16,Charente,Angoulême,Nouvelle-Aquitaine,€€€,Modern Cuisine,http://www.aumirestaurant.com,1 Star,1.0,0,0.1816045,45.6127512
La Huchette,1089 route de Bourg,"Replonges, 01750",Bourg-en-Bresse,01,Ain,Bourg-en-Bresse,Auvergne-Rhône-Alpes,€€€,Modern Cuisine,http://www.la-huchette.com/fr,1 Star,1.0,0,4.8826914,46.2987913
Villa Pinewood,590 chemin du Nègre,"Payrin-Augmontel, 81660",Castres,81,Tarn,Albi,Occitanie,€€€€,Creative,http://www.villapinewood.com,1 Star,1.0,1,2.347021,43.5272455
Auberge Sauvage,3 place Saint-Martin,"Servon, 50170",Avranches,50,Manche,Saint-Lô,Normandie,€€€€,Creative,https://aubergesauvage.fr/,1 Star,1.0,1,-1.4196972,48.6007516
Reflet d'Obione,29 rue Jean-Jacques-Rousseau,"Montpellier, 34000",Montpellier,34,Hérault,Montpellier,Occitanie,€€€,"Modern Cuisine, Mediterranean Cuisine",http://www.reflet-obione.com,1 Star,1.0,1,3.8730671,43.6122303
Villa Salone,6 rue du Maréchal-Joffre,"Salon-de-Provence, 13300",Aix-en-Provence,13,Bouches-du-Rhône,Marseille,Provence-Alpes-Côte d'Azur,€€€,Modern Cuisine,http://www.villa-salone.com,1 Star,1.0,0,5.0986,43.64144
Mont Blanc Restaurant & Goûter,16 rue de la Voûte,"Hauteluce, 73620",Albertville,73,Savoie,Chambéry,Auvergne-Rhône-Alpes,€€€,Modern Cuisine,https://www.montblanc-restaurant.com/,1 Star,1.0,0,6.5843326,45.7498163
Pavyllon,8 avenue Dutuit,"Paris, 75008",8th (Élysée),75,Paris,Paris,Île-de-France,€€€€,Modern Cuisine,https://www.yannick-alleno.com/fr/,1 Star,1.0,0,2.3162586,48.8659971
Le Faham by Kelly Rangama,108 rue Cardinet,"Paris, 75017",17th (Batignolles-Monceau),75,Paris,Paris,Île-de-France,€€€,Modern Cuisine,http://www.lefaham.com,1 Star,1.0,0,2.3117036,48.8857122
Le Restaurant du Cerisier,14 avenue du Peuple-Belge,"Lille, 59000",Lille,59,Nord,Lille,Hauts-de-France,€€€€,Creative,http://www.lecerisier.com,1 Star,1.0,0,3.0640904,50.6421148
Maison Desamy,2 rue Hervé-de-Mareuil,"Mareuil-sur-Lay-Dissais, 85320",Fontenay-le-Comte,85,Vendée,La Roche-sur-Yon,Pays de la Loire,€€€,Modern Cuisine,http://www.restaurant-maisondesamy.fr,1 Star,1.0,0,-1.2208131,46.5348942
Jean-Luc Tartarin,73 avenue Foch,"Le Havre, 76600",Le Havre,76,Seine-Maritime,Rouen,Normandie,€€€€,"Creative, Modern Cuisine",https://www.jeanluc-tartarin.com,1 Star,1.0,0,0.1031042,49.493762
Il Carpaccio,"Le Royal Monceau, 37 avenue Hoche","Paris, 75008",8th (Élysée),75,Paris,Paris,Île-de-France,€€€€,Italian,https://www.leroyalmonceau.com/restaurants/ilcarpaccio/,1 Star,1.0,0,2.29997,48.87577
Maison Tiegezh,7 place de la Gare,"Guer, 56380",Vannes,56,Morbihan,Vannes,Bretagne,€€€,Modern Cuisine,http://www.maisontiegezh.fr,1 Star,1.0,1,-2.1235452,47.9056281
L'Impulsif,19 avenue Baraduc,"Châtel-Guyon, 63140",Riom,63,Puy-de-Dôme,Clermont-Ferrand,Auvergne-Rhône-Alpes,€€€,Creative,http://www.limpulsif-restaurant.com,1 Star,1.0,0,3.0660287,45.9196471
Ōrtensia,4 rue Beethoven,"Paris, 75016",16th (Passy),75,Paris,Paris,Île-de-France,€€€€,Modern Cuisine,http://www.restaurantortensia.com,1 Star,1.0,0,2.2875568,48.8584133
Calice,30 boulevard Bertrand-Duguesclin,"Béziers, 34500",Béziers,34,Hérault,Montpellier,Occitanie,€€€,Modern Cuisine,http://www.restaurantcalice.fr,1 Star,1.0,0,3.2232426,43.3435711
Ressources,126 rue Fondaudège,"Bordeaux, 33000",Bordeaux,33,Gironde,Bordeaux,Nouvelle-Aquitaine,€€€,Modern Cuisine,https://restaurantressources.com/,1 Star,1.0,0,-0.5837068,44.8489572
La Passagère - Hôtel Belles Rives,33 boulevard Édouard-Baudoin,"Juan-les-Pins, 06160",Grasse,06,Alpes-Maritimes,Nice,Provence-Alpes-Côte d'Azur,€€€€,Creative,https://www.bellesrives.com,1 Star,1.0,0,7.1155673,43.5648223
Au 14 Février,2 rue du Portail,"Saint-Valentin, 36100",Issoudun,36,Indre,Châteauroux,Centre-Val de Loire,€€€€,Modern Cuisine,https://www.sv-au14fevrier.com/,1 Star,1.0,0,1.8649898,46.9517193
Apicius,20 rue d'Artois,"Paris, 75008",8th (Élysée),75,Paris,Paris,Île-de-France,€€€€,Modern Cuisine,https://restaurant-apicius.com/,1 Star,1.0,0,2.3072835,48.8732881
L'Atelier Yssoirien,39 boulevard Triozon-Bayle,"Issoire, 63500",Issoire,63,Puy-de-Dôme,Clermont-Ferrand,Auvergne-Rhône-Alpes,€€€,Creative,https://www.atelier-yssoirien.com/,1 Star,1.0,0,3.2503873,45.5418256
Le Grand Cap,Chemin du Phare,"Leucate, 11370",Narbonne,11,Aude,Carcassonne,Occitanie,€€€,Modern Cuisine,https://www.restaurant-grand-cap.fr/,1 Star,1.0,0,3.0571854,42.9114961
Le Jardin de Berne,"Château de Berne, chemin des Imberts","Flayosc, 83780",Draguignan,83,Var,Toulon,Provence-Alpes-Côte d'Azur,€€€€,Modern Cuisine,https://www.chateauberne.com/,1 Star,1.0,1,6.3660986,43.5164138
La Table - Hôtel Clarance,32 rue de la Barre,"Lille, 59000",Lille,59,Nord,Lille,Hauts-de-France,€€€€,Modern Cuisine,https://www.clarancehotel.com/,1 Star,1.0,0,3.0571817,50.638729
Alchémille,53 route de Lapoutroie,"Kaysersberg, 68240",Colmar-Ribeauvillé,68,Haut-Rhin,Colmar,Grand Est,€€€€,Creative,https://www.alchemille.alsace/,1 Star,1.0,1,7.2500389,48.1487566
Vincent Favre Félix,15 chemin de l'Abbaye - à Annecy-le-Vieux,"Annecy, 74940",Annecy,74,Haute-Savoie,Annecy,Auvergne-Rhône-Alpes,€€€€,Creative,https://www.restaurant-vff.com/,1 Star,1.0,0,6.1416315,45.9177189
L'Évidence,1 place des Marronniers,"Montbazon, 37250",Tours,37,Indre-et-Loire,Tours,Centre-Val de Loire,€€€,"Creative, Modern Cuisine",https://www.restaurant-levidence.com,1 Star,1.0,0,0.7133543,47.2873108
La Table de l'Ours,"Les Barmes de l'Ours, 100 montée de Bellevarde","Val-d'Isère, 73150",Albertville,73,Savoie,Chambéry,Auvergne-Rhône-Alpes,€€€€,Modern Cuisine,https://www.hotellesbarmes.com/,1 Star,1.0,0,6.9746163,45.4473775
La Tête en l'air,43 rue de la Fontaine,"Vannes, 56000",Vannes,56,Morbihan,Vannes,Bretagne,€€€,Creative,http://www.lateteenlair-vannes.com,1 Star,1.0,0,-2.7545627,47.6605029
La Promenade,11 rue du Savoureulx,"Le Petit-Pressigny, 37350",Loches,37,Indre-et-Loire,Tours,Centre-Val de Loire,€€€,Modern Cuisine,https://www.restaurantdallaislapromenade.com/,1 Star,1.0,0,0.9188379,46.920786
Maison Caillet,22 rue André-Fiquet,"Valmont, 76540",Le Havre,76,Seine-Maritime,Rouen,Normandie,€€€€,Creative,https://www.maisoncaillet.com/,1 Star,1.0,1,0.4919745,49.7446677
Le 1201 - Abbaye de Villeneuve,Lieu-dit Villeneuve,"Les Sorinières, 44840",Nantes,44,Loire-Atlantique,Nantes,Pays de la Loire,€€€€,Modern Cuisine,https://www.abbayedevilleneuve.com/restaurant/,1 Star,1.0,0,-1.5338567,47.1232859
Oxte,5 rue Troyon,"Paris, 75017",17th (Batignolles-Monceau),75,Paris,Paris,Île-de-France,€€€€,Mexican,https://www.restaurant-oxte.com/,1 Star,1.0,0,2.2956526,48.8757794
L'Orchidée,33 rue Gilardoni,"Altkirch, 68130",Altkirch,68,Haut-Rhin,Colmar,Grand Est,€€€,"Thai, Asian Contemporary",http://www.orchidee-altkirch.com,1 Star,1.0,0,7.2399636,47.6250155
Likoké,33 route de Païolive,"Les Vans, 07140",Largentière,07,Ardèche,Privas,Auvergne-Rhône-Alpes,€€€€,Creative,https://www.likoke.fr/,1 Star,1.0,1,4.133207,44.4040212
L'Aquarelle,71A route du Montil,"Breuillet, 17920",Rochefort,17,Charente-Maritime,La Rochelle,Nouvelle-Aquitaine,€€€,Creative,https://www.laquarelle.net/,1 Star,1.0,0,-1.0392481,45.6858339
Arborescence,76 rue de la Gare,"Croix, 59170",Lille,59,Nord,Lille,Hauts-de-France,€€€,"Creative, Modern Cuisine",http://www.r-arborescence.com,1 Star,1.0,0,3.141823,50.676915
Pantagruel,24 rue du Sentier,"Paris, 75002",2nd (Bourse),75,Paris,Paris,Île-de-France,€€€€,Modern Cuisine,http://www.restaurant-pantagruel.com,1 Star,1.0,0,2.3464362,48.8700016
Le Petit Léon,Le Bourg,"Saint-Léon-sur-Vézère, 24290",Sarlat-la-Canéda,24,Dordogne,Périgueux,Nouvelle-Aquitaine,€€€,Modern Cuisine,http://www.restaurantlepetitleon.fr,1 Star,1.0,0,1.0897856,45.010322
CIBO,24 rue Jeannin,"Dijon, 21000",Dijon,21,Côte-d'Or,Dijon,Bourgogne-Franche-Comté,€€€€,Modern Cuisine,https://www.cibo.restaurant/,1 Star,1.0,0,5.0455563,47.3219201
La Chapelle - Château Saint-Jean,Avenue Henri-de-la-Tourfondue,"Montluçon, 03100",Montluçon,03,Allier,Moulins,Auvergne-Rhône-Alpes,€€€€,Modern Cuisine,https://www.chateau-saint-jean.com/,1 Star,1.0,0,2.6049801,46.3233297
FIEF,44 rue de la Folie-Méricourt,"Paris, 75011",11th (Popincourt),75,Paris,Paris,Île-de-France,€€€€,"Modern Cuisine, Creative",https://www.fiefrestaurant.fr/,1 Star,1.0,1,2.372288,48.8636981
Le Favori - Les Sources de Cheverny,23 route de Fougère,"Cheverny, 41700",Blois,41,Loir-et-Cher,Blois,Centre-Val de Loire,€€€€,Modern Cuisine,https://www.sources-cheverny.com/restaurant-cheverny/le-favori/,1 Star,1.0,0,1.4326274,47.4770964
Arbore & Sens,22 rue Balzac,"Loches, 37600",Loches,37,Indre-et-Loire,Tours,Centre-Val de Loire,€€€,"Modern Cuisine, Creative",http://www.restaurant-arbore-et-sens.fr,1 Star,1.0,0,0.9965813,47.1274814
Belle de Mars,56 rue de Forbin,"Marseille, 13002",Marseille,13,Bouches-du-Rhône,Marseille,Provence-Alpes-Côte d'Azur,€€,Modern Cuisine,https://belledemars.fr,1 Star,1.0,0,5.367658,43.3048592
L'Embrun,48 rue de Lyon,"Brest, 29200",Brest,29,Finistère,Quimper,Bretagne,€€€,Modern Cuisine,https://www.lembrunrestaurant.fr/,1 Star,1.0,0,-4.4914853,48.3902009
Jean Imbert au Plaza Athénée,25 avenue Montaigne,"Paris, 75008",8th (Élysée),75,Paris,Paris,Île-de-France,€€€€,Classic Cuisine,https://www.dorchestercollection.com/fr/paris/hotel-plaza-athenee/,1 Star,1.0,0,2.3042735,48.8661718
Ezia,17 rue de Chambord,"Montlivault, 41350",Blois,41,Loir-et-Cher,Blois,Centre-Val de Loire,€€€,Modern Cuisine,https://www.ezia-restaurant.fr,1 Star,1.0,0,1.4452295,47.641088
Bruno,2350 route des Arcs,"Lorgues, 83510",Draguignan,83,Var,Toulon,Provence-Alpes-Côte d'Azur,€€€€,Classic Cuisine,https://www.restaurantbruno.com/,1 Star,1.0,0,6.3794424,43.4699245
La Vieille Tour,7 rue Nationale,"Cellettes, 41120",Blois,41,Loir-et-Cher,Blois,Centre-Val de Loire,€€€,Modern Cuisine,https://www.restaurant-la-vieille-tour-blois.com/,1 Star,1.0,0,1.3830315,47.5257537
Auberge Frankenbourg,13 rue du Général-de-Gaulle,"La Vancelle, 67730",Sélestat-Erstein,67,Bas-Rhin,Strasbourg,Grand Est,€€€,Modern Cuisine,https://www.frankenbourg.com/fr/,1 Star,1.0,1,7.3026266,48.2836435
La Table - Christophe Hay et Loïs Bée,"200 allée des Quatre-Vents, au golf de Limère","Ardon, 45160",Orléans,45,Loiret,Orléans,Centre-Val de Loire,€€€€,"Modern Cuisine, Creative",https://www.latabledacote.fr/,1 Star,1.0,0,1.9124177,47.8220926
Château de la Treyne,"Lacave, 46200","Lacave, 46200",Gourdon,46,Lot,Cahors,Occitanie,€€€€,Classic Cuisine,https://www.chateaudelatreyne.com/fr/restaurant-etoile-dordogne,1 Star,1.0,0,1.5253884,44.8494743
Jérôme Feck,19 place Monseigneur-Tissier,"Châlons-en-Champagne, 51000",Châlons-en-Champagne,51,Marne,Châlons-en-Champagne,Grand Est,€€€,Modern Cuisine,https://www.hotel-dangleterre.fr/fr/accueil/,1 Star,1.0,0,4.3649249,48.9569608
Le Pont de l'Ouysse,"Lacave, 46200","Lacave, 46200",Gourdon,46,Lot,Cahors,Occitanie,€€€,"Modern Cuisine, Classic Cuisine",https://www.lepontdelouysse.com/,1 Star,1.0,0,1.5502327,44.8442311
Frédéric Molina au Moulin de Léré,"270 route de Léré, Sous la Côte","Vailly, 74470",Thonon-les-Bains,74,Haute-Savoie,Annecy,Auvergne-Rhône-Alpes,€€€€,Modern Cuisine,https://www.moulindelere.com/,1 Star,1.0,1,6.53959,46.30015
NESO,3 rue Papillon,"Paris, 75009",9th (Opéra),75,Paris,Paris,Île-de-France,€€€€,Creative,http://www.neso.paris,1 Star,1.0,0,2.34745,48.8760396
Récif,"Les Roches Rouges, 90 boulevard de la 36ème-Division-du-Texas","Saint-Raphaël, 83530",Draguignan,83,Var,Toulon,Provence-Alpes-Côte d'Azur,€€€€,Modern Cuisine,https://www.beaumier.com/fr/proprietes/hotel-les-roches-rouges/gastronomie/,1 Star,1.0,0,6.8375024,43.4167856
La Chapelle Saint-Martin,33 route Saint-Martin-du-Fault,"Nieul, 87510",Limoges,87,Haute-Vienne,Limoges,Nouvelle-Aquitaine,€€€€,Modern Cuisine,https://www.chapellesaintmartin.com/fr/,1 Star,1.0,0,1.1775364,45.8931685
La Cachette,20 rue Notre-Dame-de-Soyons,"Valence, 26000",Valence,26,Drôme,Valence,Auvergne-Rhône-Alpes,€€€,Creative,http://www.lacachette-valence.fr,1 Star,1.0,0,4.8865476,44.9323313
Gaya par Pierre Gagnaire,6 rue de Saint-Simon,"Paris, 75007",7th (Palais-Bourbon),75,Paris,Paris,Île-de-France,€€€,"Modern Cuisine, Seafood",http://www.restaurantgaya.com,1 Star,1.0,0,2.324072,48.8565083
Villa de l'Étang Blanc,2265 route de l'Étang-Blanc (D432),"Seignosse, 40510",Dax,40,Landes,Mont-de-Marsan,Nouvelle-Aquitaine,€€€,Modern Cuisine,https://www.villaetangblanc.fr/fr/,1 Star,1.0,0,-1.3617077,43.7017352
Omar Dhiab,23 rue Hérold,"Paris, 75001",1st (Louvre),75,Paris,Paris,Île-de-France,€€€€,Modern Cuisine,http://www.omardhiab.com,1 Star,1.0,0,2.3421907,48.8652933
Domaine du Colombier,270 chemin de Malombre,"Malataverne, 26780",Nyons,26,Drôme,Valence,Auvergne-Rhône-Alpes,€€€€,"Creative, Modern Cuisine",https://www.domaine-colombier.com/,1 Star,1.0,0,4.7429648,44.4688517
Tomy & Co,22 rue Surcouf,"Paris, 75007",7th (Palais-Bourbon),75,Paris,Paris,Île-de-France,€€€,"Modern Cuisine, Creative",https://www.tomygousset.com/,1 Star,1.0,0,2.3095202,48.8605434
Le Brittany,22 boulevard Sainte-Barbe,"Roscoff, 29680",Morlaix,29,Finistère,Quimper,Bretagne,€€€€,"Modern Cuisine, Regional Cuisine",http://www.hotel-brittany.com,1 Star,1.0,0,-3.9721423,48.7246203
Divellec,18 rue Fabert,"Paris, 75007",7th (Palais-Bourbon),75,Paris,Paris,Île-de-France,€€€€,Seafood,https://www.divellec-paris.fr/,1 Star,1.0,0,2.3114674,48.8610318
Pastis Restaurant,3 rue Terral,"Montpellier, 34000",Montpellier,34,Hérault,Montpellier,Occitanie,€€€,Modern Cuisine,http://www.pastis-restaurant.com,1 Star,1.0,0,3.8738324,43.6100075
Le Moulin de la Gorce,1 route des Aurières,"La Roche-l'Abeille, 87800",Limoges,87,Haute-Vienne,Limoges,Nouvelle-Aquitaine,€€€€,Classic Cuisine,https://www.moulindelagorce.com,1 Star,1.0,0,1.2493155,45.5818459
Le Mas Bottero,2340 route d’Aix-en-Provence,"Saint-Cannat, 13760",Aix-en-Provence,13,Bouches-du-Rhône,Marseille,Provence-Alpes-Côte d'Azur,€€€,Modern Cuisine,http://www.lemasbottero.com,1 Star,1.0,0,5.330341,43.6089688
Vaisseau,35 rue Faidherbe,"Paris, 75011",11th (Popincourt),75,Paris,Paris,Île-de-France,€€€€,Creative,http://www.restaurant-vaisseau.com,1 Star,1.0,0,2.3827958,48.8532272
Le Panoramique - Domaine de la Corniche,5 route de la Corniche,"Rolleboise, 78270",Mantes-la-Jolie,78,Yvelines,Versailles,Île-de-France,€€€,Modern Cuisine,https://www.domainedelacorniche.com/,1 Star,1.0,0,1.6096554,49.0227565
L'Hysope,25 rue de l'Aurore,"La Jarrie, 17220",La Rochelle,17,Charente-Maritime,La Rochelle,Nouvelle-Aquitaine,€€€,"Creative, Modern Cuisine",https://www.lhysope.fr/fr,1 Star,1.0,0,-1.0099137,46.1294715
Racines - Bruno Cirino,3 rue Clément-Roassal,"Nice, 06000",Nice,06,Alpes-Maritimes,Nice,Provence-Alpes-Côte d'Azur,€€€,"Vegetarian, Mediterranean Cuisine",http://www.restaurant-racines-nice.com,1 Star,1.0,0,7.2624907,43.7087319
Ivan Vautier,3 avenue Henry-Chéron,"Caen, 14000",Caen,14,Calvados,Caen,Normandie,€€€,Modern Cuisine,https://www.ivanvautier.com/,1 Star,1.0,0,-0.3904722,49.1741478
Côté Cuisine,36 avenue Zacharie-Le-Rouzic,"Carnac, 56340",Lorient,56,Morbihan,Vannes,Bretagne,€€€,Modern Cuisine,https://www.lannroz.fr/fr/hotel-restaurant-carnac-morbihan,1 Star,1.0,0,-3.0786985,47.5797015
La Pomme d'Api,5 rue Saint-Yves,"Saint-Pol-de-Léon, 29250",Morlaix,29,Finistère,Quimper,Bretagne,€€€€,Creative,http://www.lapommedapi.com,1 Star,1.0,0,-3.9871351,48.6842867
Les Trois Soleils de Montal,"687 route de Montal, Saint-Jean-Lespinasse","Saint-Céré, 46400",Figeac,46,Lot,Cahors,Occitanie,€€€,Modern Cuisine,https://www.3soleils.fr/,1 Star,1.0,0,1.8642524,44.8626981
Briketenia,142 rue de l'Église,"Guéthary, 64210",Bayonne,64,Pyrénées-Atlantiques,Pau,Nouvelle-Aquitaine,€€€,Modern Cuisine,https://www.briketenia.com/fr/,1 Star,1.0,0,-1.6059286,43.41952
Atmosphères,618 route des Tournelles,"Le Bourget-du-Lac, 73370",Chambéry,73,Savoie,Chambéry,Auvergne-Rhône-Alpes,€€€€,Creative,https://www.atmospheres-hotel.com,1 Star,1.0,1,5.8522537,45.6606861
Le Puits du Trésor,21 route des Quatre-Châteaux,"Lastours, 11600",Carcassonne,11,Aude,Carcassonne,Occitanie,€€€,Modern Cuisine,https://lepuitsdutresor.com,1 Star,1.0,0,2.3787415,43.3346453
Stéphane Tournié - Les Jardins de l'Opéra,1 place du Capitole,"Toulouse, 31000",Toulouse,31,Haute-Garonne,Toulouse,Occitanie,€€€,Modern Cuisine,http://www.lesjardinsdelopera.fr,1 Star,1.0,0,1.44401,43.60391
La Palme d'Or,73 boulevard de la Croisette,"Cannes, 06400",Grasse,06,Alpes-Maritimes,Nice,Provence-Alpes-Côte d'Azur,€€€€,Modern Cuisine,http://www.lapalmedor-restaurant.fr,1 Star,1.0,0,7.0306323,43.5478128
La Chassagnette,Route du Sambuc,"Le Sambuc, 13200",Arles,13,Bouches-du-Rhône,Marseille,Provence-Alpes-Côte d'Azur,€€€€,Creative,https://www.chassagnette.fr/,1 Star,1.0,1,4.6683735,43.5677811
Le Moulin de l'Abbaye,1 route de Bourdeilles,"Brantôme, 24310",Nontron,24,Dordogne,Périgueux,Nouvelle-Aquitaine,€€€,Modern Cuisine,https://www.moulinabbaye.com/,1 Star,1.0,0,0.6462835,45.3631
Le Vivier,800 cours Fernande-Peyre,"L'Isle-sur-la-Sorgue, 84800",Avignon,84,Vaucluse,Avignon,Provence-Alpes-Côte d'Azur,€€€,Modern Cuisine,https://www.levivier-restaurant.com/,1 Star,1.0,0,5.0633622,43.9257707
La Table de Chaintré,72 place du Luminaire,"Chaintré, 71570",Mâcon,71,Saône-et-Loire,Mâcon,Bourgogne-Franche-Comté,€€€,Modern Cuisine,https://www.latabledechaintre.com,1 Star,1.0,0,4.760257,46.2604625
Auberge de la Forge,8 rue Jean-Parisot,"Lavalette, 31590",Toulouse,31,Haute-Garonne,Toulouse,Occitanie,€€€,Modern Cuisine,https://laubergedelaforge.com,1 Star,1.0,0,1.5951738,43.6376833
La Table de Philippe Girardon,"Domaine de Clairefontaine, 105 chemin des Fontanettes","Chonas-l'Amballan, 38121",Vienne,38,Isère,Grenoble,Auvergne-Rhône-Alpes,€€€€,Modern Cuisine,http://www.domaine-de-clairefontaine.fr,1 Star,1.0,0,4.8107351,45.456987
La Table de Xavier Mathieu,"Le Phébus, 508 route de Murs","Joucas, 84220",Apt,84,Vaucluse,Avignon,Provence-Alpes-Côte d'Azur,€€€€,"Modern Cuisine, Mediterranean Cuisine",https://www.lephebus.com/,1 Star,1.0,0,5.2559385,43.9289042
La Ribaudière,2 place du Port,"Bourg-Charente, 16200",Cognac,16,Charente,Angoulême,Nouvelle-Aquitaine,€€€,Modern Cuisine,https://laribaudiere.com/,1 Star,1.0,0,-0.2248163,45.6735606
Auberge du Cheval Blanc,4 rue de Wissembourg,"Lembach, 67510",Haguenau-Wissembourg,67,Bas-Rhin,Strasbourg,Grand Est,€€€€,Modern Cuisine,https://www.cheval-blanc-lembach.fr/fr/,1 Star,1.0,0,7.7906578,49.0033254
Le Puits Saint Jacques,57 avenue Victor-Capoul,"Pujaudran, 32600",Auch,32,Gers,Auch,Occitanie,€€€€,Modern Cuisine,http://www.lepuitssaintjacques.fr,1 Star,1.0,0,1.149996,43.5907291
Les Foudres,"Chais Monnet, 50 avenue Paul-Firino-Martell","Cognac, 16100",Cognac,16,Charente,Angoulême,Nouvelle-Aquitaine,€€€,Modern Cuisine,https://www.chaismonnethotel.com/restaurant,1 Star,1.0,0,-0.3344321,45.6910242
Louise,4 rue Léo-le-Bourgo,"Lorient, 56100",Lorient,56,Morbihan,Vannes,Bretagne,€€€,Modern Cuisine,http://www.restaurantlouise.fr,1 Star,1.0,0,-3.3650768,47.7487936
Substance,18 rue de Chaillot,"Paris, 75016",16th (Passy),75,Paris,Paris,Île-de-France,€€€€,Creative,https://www.substance.paris/,1 Star,1.0,0,2.2976536,48.8673445
Chez Michèle,57 rue Principale,"Languimberg, 57810",Sarrebourg-Château-Salins,57,Moselle,Metz,Grand Est,€€€,Modern Cuisine,https://www.chezmichele.fr/fr/,1 Star,1.0,0,6.858981,48.7457994
Il Cortile,11 rue des Franciscains,"Mulhouse, 68100",Mulhouse,68,Haut-Rhin,Colmar,Grand Est,€€€€,"Mediterranean Cuisine, Italian",https://www.ilcortile-mulhouse.fr/,1 Star,1.0,0,7.3340648,47.7474759
Baieta,5 rue de Pontoise,"Paris, 75005",5th (Panthéon),75,Paris,Paris,Île-de-France,€€€,Modern Cuisine,https://www.restaurant-baieta-paris.fr/,1 Star,1.0,0,2.3523102,48.8501648
AinTimiste,4 rue de la Pompe,"Poncin, 01450",Nantua,01,Ain,Bourg-en-Bresse,Auvergne-Rhône-Alpes,€€€€,"Modern Cuisine, Creative",http://www.aintimiste.fr,1 Star,1.0,0,5.4078158,46.0858481
JAN,12 rue Lascaris,"Nice, 06300",Nice,06,Alpes-Maritimes,Nice,Provence-Alpes-Côte d'Azur,€€€€,Creative,https://janonline.com/fr/restaurantjan/,1 Star,1.0,0,7.2848004,43.6998945
L'Aromate,2 rue Gustave-Deloye,"Nice, 06000",Nice,06,Alpes-Maritimes,Nice,Provence-Alpes-Côte d'Azur,€€€€,Modern Cuisine,http://www.laromate.fr,1 Star,1.0,0,7.269895,43.6992157
Flaveurs,32 Grande-Rue,"Valence, 26000",Valence,26,Drôme,Valence,Auvergne-Rhône-Alpes,€€€,Modern Cuisine,http://www.baptistepoinot.com,1 Star,1.0,0,4.8909199,44.9326634
Numéro 3,3 rue du Général-de-Gaulle,"Le Tremblay-sur-Mauldre, 78490",Rambouillet,78,Yvelines,Versailles,Île-de-France,€€€,Modern Cuisine,https://www.restaurant-numero3.fr,1 Star,1.0,0,1.8770687,48.777504
L'Anthocyane,25 avenue Ernest-Renan,"Lannion, 22300",Lannion,22,Côtes-d'Armor,Saint-Brieuc,Bretagne,€€€,Modern Cuisine,http://www.lanthocyane.com,1 Star,1.0,0,-3.4601755,48.7329305
La Madeleine,35 quai Boffrand,"Sens, 89100",Sens,89,Yonne,Auxerre,Bourgogne-Franche-Comté,€€€€,Modern Cuisine,https://www.restaurant-lamadeleine.fr/,1 Star,1.0,0,3.2741795,48.1958057
Anne,28 place des Vosges,"Paris, 75003",3rd (Temple),75,Paris,Paris,Île-de-France,€€€€,Modern Cuisine,https://www.pavillon-de-la-reine.com/restaurant-bar,1 Star,1.0,0,2.3659006,48.8561771
Maison Decoret,15 rue du Parc,"Vichy, 03200",Vichy,03,Allier,Moulins,Auvergne-Rhône-Alpes,€€€€,Modern Cuisine,https://www.maisondecoret.com/fr/,1 Star,1.0,0,3.4192286,46.1246273
Le Pressoir,7 rue de l'Hôpital,"Saint-Avé, 56890",Vannes,56,Morbihan,Vannes,Bretagne,€€€,"Modern Cuisine, Creative",http://www.le-pressoir.fr,1 Star,1.0,0,-2.7508368,47.6966578
Le Raisin,2 place Michel-Poisat,"Pont-de-Vaux, 01190",Bourg-en-Bresse,01,Ain,Bourg-en-Bresse,Auvergne-Rhône-Alpes,€€€,Traditional Cuisine,https://www.leraisin.com/,1 Star,1.0,0,4.9390332,46.4340961
Le Manoir de la Régate,155 route de Gachet,"Nantes, 44300",Nantes,44,Loire-Atlantique,Nantes,Pays de la Loire,€€€€,"Modern Cuisine, Creative",https://www.manoirdelaregate.com/,1 Star,1.0,1,-1.5263375,47.2936105
L'Atlantide 1874 - Maison Guého,5 rue de l'Hermitage,"Nantes, 44100",Nantes,44,Loire-Atlantique,Nantes,Pays de la Loire,€€€€,Modern Cuisine,https://www.atlantide1874.fr/,1 Star,1.0,0,-1.5777426,47.2012378
Auberge de Clochemerle,173 rue Gabriel-Chevallier,"Vaux-en-Beaujolais, 69460",Villefranche-sur-Saône,69,Rhône,Lyon,Auvergne-Rhône-Alpes,€€€,Modern Cuisine,https://www.aubergedeclochemerle.fr/,1 Star,1.0,0,4.594033,46.056396
Jérôme Nutile,351 chemin Bas-du-Mas-de-Boudan,"Nîmes, 30000",Nîmes,30,Gard,Nîmes,Occitanie,€€€€,Modern Cuisine,https://www.jerome-nutile.com,1 Star,1.0,0,4.3709411,43.8208935
L'Odas,4 passage Maurice-Lenfant,"Rouen, 76000",Rouen,76,Seine-Maritime,Rouen,Normandie,€€€,Creative,http://www.lodas.fr,1 Star,1.0,0,1.0945346,49.4411004
L'Essentiel,8 rue de la Clarté,"Périgueux, 24000",Périgueux,24,Dordogne,Périgueux,Nouvelle-Aquitaine,€€€,Modern Cuisine,https://www.restaurant-perigueux.com/,1 Star,1.0,0,0.7223774,45.1840692
Grand Hôtel du Lion d'Or,69 rue Georges-Clemenceau,"Romorantin-Lanthenay, 41200",Romorantin-Lanthenay,41,Loir-et-Cher,Blois,Centre-Val de Loire,€€€€,Modern Cuisine,https://www.hotel-liondor-romorantin.fr/fr/,1 Star,1.0,0,1.7438252,47.3602993
Lasserre,17 avenue Franklin-D.-Roosevelt,"Paris, 75008",8th (Élysée),75,Paris,Paris,Île-de-France,€€€€,Classic Cuisine,https://www.restaurant-lasserre.com/fr/,1 Star,1.0,0,2.3099647,48.8663787
La Vieille Tour,75 rue de la Tour,"Plérin, 22190",Saint-Brieuc,22,Côtes-d'Armor,Saint-Brieuc,Bretagne,€€€,Modern Cuisine,https://www.la-vieille-tour.com/,1 Star,1.0,0,-2.7261477,48.5307941
Le Clocher des Pères,"Le Mollard, 80 impasse du Four","Saint-Martin-sur-la-Chambre, 73130",Saint-Jean-de-Maurienne,73,Savoie,Chambéry,Auvergne-Rhône-Alpes,€€€,Creative,https://www.chambres-d-hote-maurienne-le-clocher-des-peres.fr/fr/m_1_accueil.php,1 Star,1.0,0,6.3168158,45.3664596
La Table du Gourmet,5 rue de la 1ère-Armée,"Riquewihr, 68340",Colmar-Ribeauvillé,68,Haut-Rhin,Colmar,Grand Est,€€€€,"Creative, Modern Cuisine",https://www.jlbrendel.com/fr/,1 Star,1.0,1,7.2972837,48.1664136
L'Almandin,"Boulevard de l'Almandin, St-Cyprien Sud","Saint-Cyprien, 66750",Céret,66,Pyrénées-Orientales,Perpignan,Occitanie,€€€,Modern Cuisine,https://www.almandin.fr/,1 Star,1.0,0,3.036187,42.6095379
Le Saint Placide,"6 place du Poncel, Saint-Servan-sur-Mer","Saint-Malo, 35400",Saint-Malo,35,Ille-et-Vilaine,Rennes,Bretagne,€€€€,Creative,https://www.st-placide.com/,1 Star,1.0,0,-2.010532,48.6296543
Le Kaïku,17 rue de la République,"Saint-Jean-de-Luz, 64500",Bayonne,64,Pyrénées-Atlantiques,Pau,Nouvelle-Aquitaine,€€€,Modern Cuisine,https://www.kaiku.fr/,1 Star,1.0,0,-1.6644341,43.3887002
Les Cèdres,25 rue Henri-Machon,"Granges-les-Beaumont, 26600",Valence,26,Drôme,Valence,Auvergne-Rhône-Alpes,€€€€,Classic Cuisine,https://www.restaurantlescedres.fr/fr/,1 Star,1.0,0,4.9838433,45.0502101
Lavandin - Château Les Oliviers de Salettes,1205 route du Château,"Charols, 26450",Nyons,26,Drôme,Valence,Auvergne-Rhône-Alpes,€€€,Modern Cuisine,https://www.chateaulesoliviersdesalettes.com,1 Star,1.0,0,4.9700561,44.5873188
Le Relais des Moines,Route de Sainte-Roseline,"Les Arcs, 83460",Draguignan,83,Var,Toulon,Provence-Alpes-Côte d'Azur,€€€€,Modern Cuisine,https://www.lerelaisdesmoines.com,1 Star,1.0,0,6.49026,43.46639
Le Cap,"Grand Hôtel du Cap-Ferrat, 71 boulevard du Général-de-Gaulle","Saint-Jean-Cap-Ferrat, 06230",Nice,06,Alpes-Maritimes,Nice,Provence-Alpes-Côte d'Azur,€€€€,"Creative, Modern Cuisine",https://www.fourseasons.com/fr/capferrat/dining/restaurants/le_cap/,1 Star,1.0,0,7.3314132,43.6770545
La Renaissance,20 avenue de la 2ème-Division-Blindée,"Argentan, 61200",Argentan,61,Orne,Alençon,Normandie,€€€,Modern Cuisine,https://www.arnaudviel.com,1 Star,1.0,0,-0.0285254,48.7391758
Lamartine,"3132 route du Tunnel-du-Chat, Bourdeau","Le Bourget-du-Lac, 73370",Chambéry,73,Savoie,Chambéry,Auvergne-Rhône-Alpes,€€€€,Modern Cuisine,https://www.lamartine-marin.com,1 Star,1.0,0,5.8531112,45.6758342
Restaurant Julien Binz,7 rue des Cigognes,"Ammerschwihr, 68770",Colmar-Ribeauvillé,68,Haut-Rhin,Colmar,Grand Est,€€€€,Modern Cuisine,http://www.restaurantjulienbinz.com,1 Star,1.0,0,7.2828846,48.1256598
Le Figuier de Saint-Esprit,14 rue Saint-Esprit,"Antibes, 06600",Grasse,06,Alpes-Maritimes,Nice,Provence-Alpes-Côte d'Azur,€€€€,Regional Cuisine,https://www.restaurant-figuier-saint-esprit.fr/,1 Star,1.0,0,7.1284844,43.5818083
La Closerie,Boulevard des Platanes,"Ansouis, 84240",Apt,84,Vaucluse,Avignon,Provence-Alpes-Côte d'Azur,€€€,Traditional Cuisine,https://www.lacloserieansouis.com/,1 Star,1.0,0,5.4649088,43.7381545
Les Pêcheurs,"10 boulevard du Maréchal-Juin, au Cap d'Antibes","Antibes, 06160",Grasse,06,Alpes-Maritimes,Nice,Provence-Alpes-Côte d'Azur,€€€€,Mediterranean Cuisine,https://www.ca-beachhotel.com/,1 Star,1.0,0,7.1181731,43.5614172
Louroc - Hôtel du Cap-Eden-Roc,"Boulevard J.-F.-Kennedy, au Cap d'Antibes","Antibes, 06160",Grasse,06,Alpes-Maritimes,Nice,Provence-Alpes-Côte d'Azur,€€€€,"Modern Cuisine, Mediterranean Cuisine",https://www.oetkercollection.com/hotels/hotel-du-cap-eden-roc/,1 Star,1.0,0,7.1216544,43.5483167
Le Hittau,1 rue du Nouaou,"Saint-Vincent-de-Tyrosse, 40230",Dax,40,Landes,Mont-de-Marsan,Nouvelle-Aquitaine,€€€,Modern Cuisine,https://www.lehittau.fr/,1 Star,1.0,0,-1.2961309,43.6617126
Aida,1 rue Pierre-Leroux,"Paris, 75007",7th (Palais-Bourbon),75,Paris,Paris,Île-de-France,€€€€,Japanese,,1 Star,1.0,0,2.3186554,48.850275
Thierry Schwartz - Le Restaurant,35 rue de Sélestat,"Obernai, 67210",Sélestat-Erstein,67,Bas-Rhin,Strasbourg,Grand Est,€€€€,Creative,https://www.thierry-schwartz.fr/,1 Star,1.0,1,7.4837134,48.4604843
La Table de Cédric Béchade - L'Auberge Basque,745 vieille route de Saint-Pée - quartier Helbarron,"Saint-Pée-sur-Nivelle, 64310",Bayonne,64,Pyrénées-Atlantiques,Pau,Nouvelle-Aquitaine,€€€€,Creative,https://www.aubergebasque.com/,1 Star,1.0,0,-1.5846002,43.3675657
Aux Pesked,59 rue du Légué,"Saint-Brieuc, 22000",Saint-Brieuc,22,Côtes-d'Armor,Saint-Brieuc,Bretagne,€€€,"Seafood, Modern Cuisine",https://www.auxpesked.com/,1 Star,1.0,0,-2.7632962,48.5221338
L'Auberge Saint Jean,8 rue du Pont,"Saint-Jean-de-Blaignac, 33420",Libourne,33,Gironde,Bordeaux,Nouvelle-Aquitaine,€€€,Modern Cuisine,https://www.aubergesaintjean.com/,1 Star,1.0,0,-0.1389675,44.8134329
La Coopérative - Domaine Riberach,2 route de Caladroy,"Bélesta, 66720",Prades,66,Pyrénées-Orientales,Perpignan,Occitanie,€€€,Creative,https://www.riberach.com,1 Star,1.0,1,2.6073514,42.7181258
Le Gindreau,"146 rue du Gindreau, le Bourg","Saint-Médard, 46150",Cahors,46,Lot,Cahors,Occitanie,€€€€,Creative,https://www.legindreau.com/,1 Star,1.0,0,1.2913203,44.5383407
Auberge Quintessence,Route du Col-de-la-Couillole,"Roubion, 06420",Nice,06,Alpes-Maritimes,Nice,Provence-Alpes-Côte d'Azur,€€€,Modern Cuisine,https://auberge-quintessence.com/,1 Star,1.0,0,7.0229406,44.0996599
Sushi Shunei,3 rue Audran,"Paris, 75018",18th (Butte-Montmartre),75,Paris,Paris,Île-de-France,€€€€,"Japanese, Sushi",https://www.sushishunei.com/,1 Star,1.0,0,2.3357826,48.8851108
Pure & V,7 rue du Lycée,"Nice, 06000",Nice,06,Alpes-Maritimes,Nice,Provence-Alpes-Côte d'Azur,€€€€,Modern Cuisine,http://www.pureandvrestaurant.com,1 Star,1.0,0,7.2742651,43.6994676
La Mare aux Oiseaux,223 rue du Chef-de-l'Île-Fedrun,"Saint-Joachim, 44720",Saint-Nazaire,44,Loire-Atlantique,Nantes,Pays de la Loire,€€€€,Creative,https://mareauxoiseaux.fr/fr/,1 Star,1.0,0,-2.2140297,47.3729206
Logis de la Cadène,3 place du Marché-au-Bois,"Saint-Emilion, 33330",Libourne,33,Gironde,Bordeaux,Nouvelle-Aquitaine,€€€€,Modern Cuisine,https://www.logisdelacadene.fr/,1 Star,1.0,0,-0.1559683,44.8934854
Château de Pray,"Rue du Cèdre, à Chargé","Amboise, 37530",Loches,37,Indre-et-Loire,Tours,Centre-Val de Loire,€€€,Modern Cuisine,https://www.chateaudepray.fr/,1 Star,1.0,0,1.0160758,47.424971
Le Goût du Bonheur - La Fenière,1680 route de Lourmarin,"Cadenet, 84160",Apt,84,Vaucluse,Avignon,Provence-Alpes-Côte d'Azur,€€€€,"Creative, Farm to table",https://www.aubergelafeniere.com/,1 Star,1.0,1,5.3642746,43.7487002
Les Genêts,21 bis rue de l'Océan,"Brem-sur-Mer, 85470",Les Sables-d'Olonne,85,Vendée,La Roche-sur-Yon,Pays de la Loire,€€€,Creative,https://www.restaurant-les-genets.fr/,1 Star,1.0,0,-1.8350415,46.605894
La Table d'Olivier,3 rue Saint-Ambroise,"Brive-la-Gaillarde, 19100",Brive-la-Gaillarde,19,Corrèze,Tulle,Nouvelle-Aquitaine,€€€,Modern Cuisine,,1 Star,1.0,0,1.5308409,45.158952
